date,time,longitude,latitude,attack_type,nearest_country,shore_distance,attack_description,vessel_name,vessel_type
1993-01-02,,116.9667,19.7,,CHN,357.5023726,,Mv Cosmic Leader,
1993-01-04,,116,22.35,,CHN,47.43157252,,Mv Tricolor Star III,
1993-01-06,,115.25,19.67,,CHN,280.8118709,,Mv Arktis Star,
1993-01-08,,124.5833,29.9,,CHN,209.9233962,,Ussurijsk,
1993-01-12,,120.2667,18.1333333,,PHL,22.02733208,,Mv Chennai Nermai,
1993-01-13,,101.85,9.7173,,KHM,184.7966407,,Emelyan Yaroslavskiy,
1993-01-25,,106.8667,8.5666667,,VNM,27.43734378,,Mv Indira Ghandhi,
1993-01-26,,123.5,29,,CHN,141.5155643,,Mt Petrobulk Panther,
1993-01-26,,13.25,-8.8,,AGO,0.5092156691,,Mv Bodrog,
1993-01-26,,119.4,4.4333333,,PHL,25.37858765,,Mv Southern King,
1993-02-04,,123.1667,25.75,,,34.60225313,,Sukhinichi,
1993-02-05,,7.2267,5.0016667,,NGA,31.94602534,,Mv Norgas Navigator,
1993-02-06,,118.1667,16.5833333,,PHL,174.7366959,,Mv Hulpha Kluang,
1993-02-15,,121.2995,38.6974,,CHN,9.412733696,,Mv Marine Peace,
1993-02-16,,118.7167,19.3166667,,PHL,214.9032465,,Mv Lion,
1993-02-16,,39.3533,-6.775,,TZA,5.977859498,,Mv Socol 5,
1993-02-16,,111.0333,17.3333333,,CHN,107.3275228,,Mv Mary Nour,
1993-02-16,,111.2,15.7833333,,VNM,0.475901494,,Mt Samuel L. Cobb,
1993-02-18,,115.25,19.67,,CHN,280.8118709,,Mv Aleksandr Tsyurupa,
1993-02-25,,104.4,8.5166667,,VNM,36.79960757,,Mv Great Amity,
1993-02-25,,124.4333,36.2,,KOR,162.2626611,,Mv Komsomolets,
1993-02-28,,67.1457,24.7847,,PAK,1.291377263,,Mv Alam Sempurna,
1993-03-01,,50.5833,8.9333333,,SOM,9.93972078,,Somalian Glory,
1993-03-03,,120.4667,25.4333333,,CHN,61.08917382,,Mv Tulsidas,
1993-03-05,,120.0667,17.6,,PHL,28.76509067,,Mv Zirje,
1993-03-06,,98.7167,3.8,,IDN,0.7938924438,,Mv Kavo Sidero,
1993-03-19,,122.7667,37.2833333,,CHN,12.77479324,,Mv Sibirskiy 2114,
1993-03-21,,115.25,19.67,,CHN,280.8118709,,M69204Y,
1993-03-21,,109.5,15,,VNM,54.13836499,,Mt Suci,
1993-03-23,,105.85,3.8166667,,IDN,68.73987072,,Mv Kurama,
1993-03-23,,124.3333,26.75,,,97.18674873,,Mv Vsip Pyatnitskiy,
1993-03-24,,-43.1667,-22.8933333,,BRA,0.5391398523,,Mv Santos Express,
1993-04-02,,121.7766,38.7931,,CHN,10.42762457,,Mv Bunga Terasek,
1993-04-04,,123.8,22.7333333,,JPN,168.8271381,,Mv Pernas Proton,
1993-04-04,,115.6667,22.3333333,,CHN,38.27281173,,Mv Birlad,
1993-04-08,,111.4167,12.5166667,,VNM,211.8323817,,Mv NL Trader,
1993-04-13,,115.25,19.67,,CHN,280.8118709,,MV Baltimar Neptune,
1993-04-17,,115.6167,17.6333333,,CHN,324.7929248,,MV Sun Kung No. 8,
1993-04-22,,117.35,20.3,,CHN,305.362037,,MV OOCL Beacon,
1993-04-22,,98.6767,3.7766667,,IDN,4.815190419,,Mv Magic Lady,
1993-04-22,,116.0833,19.4,,CHN,346.6162688,,MV Salud Ace,
1993-04-23,,116.7833,21.1666667,,CHN,196.9697334,,Bukhta,
1993-04-23,,117.5,20.8,,CHN,258.6698845,,Mv Old Sea Beacon,
1993-04-29,,126.0333,28.85,,JPN,241.2175085,,MT President,
1993-04-29,,114.1833,17.926,,CHN,207.8542609,,Mv Zhongshan,
1993-05-02,,124.95,35.2333333,,KOR,73.42519403,,Mv Konstantin,
1993-05-04,,115.984,19.3123,,CHN,349.5862663,,Mv Tricolor Star III,
1993-05-04,,123.85,35.7833333,,CHN,172.4863261,,Mv Komsomlskaya Smena,
1993-05-17,,3.3767,6.45,,NGA,0.745848921,,Mt Petrobulk Panther,
1993-05-19,,106,-5.95,,IDN,3.580700836,,Maersk Sussex,
1993-05-24,,100.1667,3.5,,IDN,58.18179192,,Mv Star Lily,
1993-05-25,,108.7167,-5.7833333,,IDN,64.64907938,,Mt Timur Mercury,
1993-05-25,,108.4,6.9833333,,IDN,248.3809,,Mv Pina,
1993-06-02,,122.1833,37.4333333,,CHN,1.284733749,,Mv Sibirskiy-2114,
1993-06-03,,101.45,1.6766667,,IDN,4.422683577,,Mt Timur Endurance,
1993-06-09,,101.9,2.25,,MYS,16.44109515,,Mt Royal Arrow,
1993-06-09,,124.6667,27.6166667,,,190.6399253,,Mv Soyuz 4,
1993-06-11,,124.1667,22.75,,JPN,169.7109435,,Mt Dooyang Amber,
1993-06-11,,123.5667,37.7,,CHN,84.03706164,,Mv Kap. Modest Ivanov,
1993-06-12,,79.8432,6.95,,LKA,1.450377734,,Mv Tiger Stream,
1993-06-13,,123.3167,36.8166667,,CHN,70.9440071,,Gorets,
1993-06-15,,122.9286,29.0791,,CHN,93.28014704,,Mv Kovdor,
1993-06-16,,125.1539,29.2179,,CHN,275.9887222,,Mv Tokarevsk,
1993-06-17,,127.5,29.7833333,,JPN,196.3917211,,Mv Elm,
1993-06-21,,3.3667,6.2833333,,NGA,12.76660309,,Mt Dan Frigg,
1993-06-24,,111.2333,20.4166667,,CHN,55.44484006,,Mv Kapitan Betkher,
1993-06-25,,-77.0667,3.8766667,,COL,1.008899726,,Mv Crion,
1993-06-25,,128.6167,35.0666667,,KOR,0.7547466035,,Gorets,
1993-06-26,,110.5833,20.9666667,,CHN,1.040183208,,Mv Pavel Rybin,
1993-06-26,,106.5,5.25,,IDN,170.4340586,,Mv Far Trader,
1993-06-26,,116.25,20.7666667,,CHN,221.8364662,,Mv Kap. Leo. Borisenko,
1993-07-06,,115.7,20.0333333,,CHN,265.8912454,,Mv Khudozhnik,
1993-07-07,,99.4333,4.1833333,,IDN,75.01162277,,Mv Faarabi,
1993-07-07,,124.1333,35.3166667,,KOR,135.7884717,,Mv Valeriy Volkov,
1993-07-08,,124.1667,35.3333333,,KOR,134.1623893,,Mv Evgenity Zuluz,
1993-07-14,,115.2167,22.3,,CHN,42.12889507,,Mv Ivan Skuridin,
1993-07-15,,115.15,22.4,,CHN,29.71560231,,Mv Ko Mal San,
1993-08-13,,115.1,22.1333333,,CHN,50.45197051,,Mv Hermes Hope,
1993-08-20,,112.7467,-7.1885,,IDN,1.852101831,,Mt Kitsa,
1993-08-28,,115.4533,19.5783333,,CHN,298.1979649,,Mv A.J. 1,
1993-09-02,,98.6767,3.7766667,,IDN,4.815190419,,Mv Gold Future,
1993-09-09,,13.965,-5.915,,COD,86.69204428,,Mv Tilly,
1993-09-11,,105,1,,IDN,16.53721606,,Mv Kota Intan,
1993-09-21,,120.1667,17.7166667,,PHL,20.23933908,,Mv Inger Riis,
1993-09-27,,98.6767,3.7766667,,IDN,4.815190419,,Mv Macknight,
1993-09-29,,-46.33,-24.1483333,,BRA,14.29787153,,Mv Sao Paulo,
1993-10-08,,-46.33,-24.1483333,,BRA,14.29787153,,Mv Betelgeuse,
1993-10-17,,120.2867,18.28,,PHL,25.42184835,,Mt BP Admiral,
1993-10-19,,115.8667,-9.1666667,,IDN,32.97812517,,Gullhaar,
1993-10-22,,106.6667,8.2833333,,VNM,41.48872685,,Mv Nordsino,
1993-10-26,,-58.17,6.8216667,,GUY,0.6368436731,,Mv Cottica,
1993-10-28,,98.5833,-4.7333333,,IDN,256.5771124,,Mv Impala,
1993-11-02,,90.8333,22.0833,,BGD,6.0976986,,LPG/C Polar Endurance,
1993-11-05,,118.3667,19.8666667,,PHL,276.6421382,,Mv Kayax,
1993-11-12,,79.6487,6.9499,,LKA,22.08245376,,Mv Lanka Asitha,
1993-12-04,,120.1833,17.95,,PHL,26.17542983,,Mv Alam Teladan,
1993-12-06,,89.3333,1.8333333,,IDN,715.2368129,,Mv Usguaua,
1993-12-09,,98.6767,3.7766667,,IDN,4.815190419,,Mv Sea Laurel,
1994-01-02,,116.1,22.0166667,Attempted,CHN,85.61923805,,Francesia,
1994-01-05,,112.0333,13.6333333,Hijacked,VNM,253.5601658,,Jui Ho,
1994-01-09,,103.4,1.1833333,Attempted,IDN,5.975183863,,Joyama Maru,
1994-01-09,,103.4833,1.3,Boarded,MYS,2.5660371,,Gyoko Maru,
1994-01-09,,103.45,1.1666667,Boarded,IDN,7.813492156,,Hellespont P,
1994-01-10,,118.1167,18.5666667,Boarded,PHL,254.2741924,,Peder Most,
1994-01-11,,91.8267,22.2383333,Attempted,BGD,0.8313376995,,Moon Bird,
1994-01-12,,104.0833,1.2333333,Boarded,IDN,5.098464691,,Bophuthatbwana,
1994-01-16,,123.9,28.5666667,Boarded,CHN,198.5581073,,Lucie Schulte,
1994-01-16,,107.0833,10.3,Boarded,VNM,2.599546049,,Diyyinah,
1994-01-22,,32.55,29.8166667,Boarded,EGY,5.333366015,,Landka Asitha,
1994-01-25,,103.3167,1.25,Boarded,IDN,14.25915349,,Aries Has,
1994-01-25,,119.9667,17.6833333,Boarded,PHL,41.00942032,,Hans Oldendorff,
1994-01-26,,-76.7533,17.7366667,,JAM,21.2955163,,Victoria Faith,
1994-01-27,,122.9286,29.0791,,CHN,93.28014704,,Nanshin Maru,
1994-01-27,,121.4,20,Hijacked,PHL,56.02019796,,Alicia Star,
1994-01-30,,110.7667,14.9,Boarded,VNM,107.257783,,Kota Mulia,
1994-02-10,,43.1667,11.6666667,Hijacked,DJI,6.285266935,,MV Castor,
1994-02-16,,112.0333,13.6333333,,VNM,253.5601658,,Vlaherna,
1994-02-16,,121.5933,15.0133333,Boarded,PHL,4.431694785,,Nord Light,
1994-02-21,,112.9,12.2833333,Attempted,CHN,202.7920642,,Rita Del Mar,
1994-02-27,,121.6433,22.9833333,Boarded,TWN,30.3015704,,Keumgang Glory,
1994-03-08,,116.95,-1.3666667,Boarded,IDN,14.04081611,,Timur Endurance,
1994-03-12,,106.3333,8.4666667,Attempted,VNM,34.1164283,,Santa Esmeralda,
1994-03-14,,-17.4247,14.676,Boarded,SEN,0.2610339344,,Peder Most,
1994-03-15,,79.7583,6.945,Boarded,LKA,10.10893705,,California Zeus,
1994-03-20,,114.1945,22.555,Hijacked,CHN,2.7731864,,Tequila,
1994-03-25,,116.1167,22.6166667,Attempted,CHN,23.2708876,,Khudozhnik N. Rer,
1994-03-26,,121.6433,25.9833333,Attempted,TWN,77.79337613,,Nordsung,
1994-03-26,,114.2667,22.1166667,Boarded,CHN,6.397482952,,Shun Ping,
1994-04-19,,110.4717,13.3883333,Boarded,VNM,121.1358888,,Kota Indah,
1994-04-23,,121.22,19.6041667,Attempted,PHL,28.75848418,,Forum Wind,
1994-04-25,,106.9025,-6.0976667,Boarded,IDN,7.190381219,,Ikan Beliak,
1994-05-03,,107.3,18.75,Hijacked,VNM,114.7249447,,M63807A,
1994-05-08,,98.7007,3.7836667,Boarded,IDN,2.482068608,,Bangkok Navee,
1994-05-16,,-48.4877,-24.637,Boarded,BRA,62.48681319,,Alaska,
1994-05-17,,98.7007,3.7836667,Boarded,IDN,2.482068608,,Finnwood,
1994-05-22,,119.95,17.6,Attempted,PHL,41.03025732,,Timber Trader XII,
1994-05-24,,98.7007,3.7836667,Boarded,IDN,2.482068608,,Nordstar,
1994-05-30,,-46.305,-24.637,Boarded,BRA,67.33122822,,Cap Polonio,
1994-05-30,,98.7007,3.7836667,Boarded,IDN,2.482068608,,Ocean GR,
1994-05-30,,117.5667,0.0833333,Boarded,IDN,8.356471608,,Pacific Gas,
1994-06-04,,122.1667,6.1333333,Attempted,PHL,26.84000267,,Wold Quince,
1994-06-07,,104.6,1.6666667,,MYS,38.49789725,,vviva,
1994-06-09,,-48.4877,-24.637,Boarded,BRA,62.48681319,,San Giovanni,
1994-06-13,,118.0555,5.815,Boarded,MYS,0.7614011037,,Asian Venture,
1994-06-15,,117.1383,-0.5401667,Boarded,IDN,33.74762115,,Toyo,
1994-06-19,,112.7235,-7.2038333,Boarded,IDN,1.955988514,,Bass Reefer,
1994-07-01,,117.6167,0.0333333,Boarded,IDN,10.9064988,,Bonny,
1994-07-16,,114.1945,22.555,Attempted,CHN,2.7731864,,Ervilia,
1994-07-17,,119.05,21.25,Attempted,TWN,187.576441,,Rheingas,
1994-07-18,,-43.1913,-22.8765,Boarded,BRA,2.178646678,,Mister Michael,
1994-07-19,,115.8667,20.1333333,Attempted,CHN,266.8439144,,New Hailee,
1994-07-26,,123.1867,29.63,Attempted,CHN,79.82176086,,Kropotkin,
1994-07-26,,118.0833,5.8,Boarded,MYS,1.718180666,,Gloria Ace,
1994-08-02,,121.5933,15.0133333,Boarded,PHL,4.431694785,,Gorno Altaysk,
1994-08-14,,-40.335,-20.3206667,Boarded,BRA,1.243161264,,Alexandergracht,
1994-08-16,,-46.3093,-24.0703333,Boarded,BRA,5.872718951,,Maersk La Plata,
1994-08-19,,120.9428,14.5211667,Boarded,PHL,3.658996985,,Fukumaru,
1994-08-21,,91.806,22.223,Boarded,BGD,1.163908905,,MV Young II,
1994-08-24,,105.9333,-6.0166667,Boarded,IDN,3.294167977,,Caroline Oldendorff,
1994-08-26,,105.9535,-6.0081667,Boarded,IDN,1.1166917,,Torben Spirit,
1994-08-31,,104.679,1.5505,Boarded,IDN,37.74056299,,Essberger Pioneer,
1994-08-31,,104.679,1.5505,Boarded,IDN,37.74056299,,C. Tahsin,
1994-09-09,,113.4667,18.3666667,Attempted,CHN,198.942011,,Lyki,
1994-09-12,,106.8833,20.64,Boarded,VNM,9.072476433,,Mekong Spring,
1994-09-17,,114.1558,22.3193333,Boarded,CHN,0.5009985637,,Maritime Omi,
1994-09-27,,119.0833,19.1333333,Attempted,PHL,171.4002877,,Chitra,
1994-10-10,,-4,5.2931667,Boarded,CIV,1.268660948,,Nordic Bulker,
1994-10-16,,155.9033,-6.2583333,Attempted,PNG,15.42236189,,Club Med II,
1994-10-20,,-80.0867,-2.52,Boarded,ECU,4.446084967,,Sea Wind,
1994-10-21,,112.7235,-7.2038333,Boarded,IDN,1.955988514,,Estebrugge,
1994-10-25,,114.1217,22.16,Boarded,CHN,2.196548724,,United Ambition,
1994-10-25,,112.7235,-7.2038333,Boarded,IDN,1.955988514,,Reestborg,
1994-10-27,,107.3,-3,Boarded,IDN,12.89001061,,Windward,
1994-11-03,,106.8867,-6.0338333,Boarded,IDN,9.348946503,,Melgar,
1994-11-04,,-80.0867,-2.52,Boarded,ECU,4.446084967,,Sea Wave,
1994-11-14,,107.2917,-3.025,Boarded,IDN,15.24744201,,Dove Arrow,
1994-11-15,,104.5833,1.4,Boarded,IDN,19.3238956,,Yaya,
1994-11-21,,106.8833,-5.9731667,Attempted,IDN,13.24579241,,Fortunate Star,
1994-11-22,,107.3,-2.8666667,Boarded,IDN,5.105025692,,Essverger Pioneer,
1994-11-23,,107.2833,-2.9333333,Boarded,IDN,8.24492587,,Continental Spirit,
1994-11-26,,119.7267,16.5533333,Attempted,PHL,22.51419079,,Audacious,
1994-11-26,,-79.9983,-2.3567,Boarded,ECU,0.3540742048,,Caria,
1994-11-27,,125.2833,33.7,Attempted,KOR,40.8694705,,Sea Bird,
1994-11-27,,-46.3517,-24.0133333,Boarded,BRA,2.089366547,,Ocean Competence,
1994-11-30,,53.8958,29.8115,Hijacked,IRN,279.2807953,,Dunay,
1994-11-30,,53.8958,29.8115,Hijacked,IRN,279.2807953,,Ellam,
1994-11-30,,90.0183,21.9721,Hijacked,BGD,2.044335111,,Allya,
1994-11-30,,53.8958,29.8115,Hijacked,IRN,279.2807953,,Nilkamtha,
1994-11-30,,53.8958,29.8115,Hijacked,IRN,279.2807953,,Sree Vishnu,
1994-12-06,,107.2667,-2.8666667,Boarded,IDN,8.588474176,,Eagle Tide,
1994-12-09,,118.115,5.8233333,Boarded,MYS,2.110891726,,Nanyo,
1994-12-28,,106.8867,-6.0338333,Boarded,IDN,9.348946503,,Anro Australia,
1995-01-05,,112.6867,-7.1766667,Boarding,IDN,0.3706378198,,Bunga Kerayong,
1995-01-07,,122.185,37.4386667,Boarding,CHN,1.329001911,,Kafu Maru,
1995-01-08,,98.6767,3.7766667,Boarding,IDN,4.815190419,,Troianu,
1995-01-10,,131.8833,43.11666667,Boarding,RUS,2.324696496,,Alaksey Chuyer,
1995-01-18,,98.7983,3.98,Boarding,IDN,15.32967371,,Captain George II,
1995-01-21,,120.0867,18.425,Attempted,PHL,50.42774059,,Ocean Glory,
1995-01-23,,118.105,5.8133333,Boarding,MYS,1.561216093,,Norbulk Pine,
1995-01-23,,120.8167,16.6,Attempted,PHL,53.81577141,,Golden Alpha,
1995-01-26,,39.3533,-6.775,Boarding,TZA,5.977859498,,Pegasus,
1995-01-28,,52.0142,26.8085,Hijacked,IRN,83.84692291,,Shaiboub,
1995-01-31,,106.875,-6.0886667,Boarding,IDN,4.407541808,,Darya Chand,
1995-02-03,,98.6767,3.7766667,Boarding,IDN,4.815190419,,Kapetan Elias,
1995-02-04,,116.7967,-1.2766667,Boarding,IDN,1.987233016,,Bunga Kerayong,
1995-02-11,,-43.1667,-22.8933333,Boarding,BRA,0.5391398523,,Regina,
1995-02-15,,108.5833,7.3,Boarding,VNM,262.8457714,,Lucky Trader No. 1,
1995-02-21,,105.9467,-6.0083333,Boarding,IDN,1.563034483,,LPG Norgas Traveller,
1995-02-23,,117.4167,23.2,Attempted,CHN,36.80991688,,Hanjin Kunsan,
1995-02-26,,-79.9167,9.35,Boarding,PAN,1.839919215,,Shansi,
1995-02-28,,43.6167,11.5833333,Attempted,SOM,26.34617802,,Nourberg Mofarrij,
1995-02-28,,52.0142,26.8085,Hijacked,IRN,83.84692291,,Capriolo,
1995-03-04,,119.03,19.675,Attempted,PHL,207.6882552,,ACX Iris,
1995-03-07,,-43.1667,-22.8933333,Boarding,BRA,0.5391398523,,San Miguel,
1995-03-07,,114.2,22.2666667,Hijacked,CHN,2.477473174,,Xiamen Bridge,
1995-03-07,,106.15,-6.0666667,Boarding,IDN,6.399349131,,Bunga Melor Satu,
1995-03-07,,-43.2,-22.9,Boarding,BRA,3.093283939,,Marwan,
1995-03-08,,117.85,21.7166667,Boarding,CHN,194.4898552,,Ling Xian,
1995-03-15,,3.4539,37.195,Boarding,DZA,42.3382843,,Biban,
1995-03-15,,29.9667,41.0166667,Boarding,TUR,16.23387589,,Ayvazovskly,
1995-03-15,,113.8571,21.8865,Hijacked,CHN,13.06400514,,Wing Lee No. 3,
1995-03-23,,117.2833,-1,Boarding,IDN,9.92311808,,Navigatore - D,
1995-03-25,,112.7,-7.1833333,Boarding,IDN,2.013058366,,Reestborg,
1995-04-01,,112.0667,-7.1456667,Boarding,IDN,26.3496598,,Calatang,
1995-04-02,,107.35,-2.7,Attempted,IDN,17.16348096,,Konkar Pioneer,
1995-04-03,,50.81,12.145,Boarding,SOM,17.29458699,,Full City,
1995-04-05,,113.445,16.2183333,Attempted,CHN,90.06288579,,Amer Prabha,
1995-04-05,,48.4136,4.9115,Attempted,SOM,20.83466191,,Longo Barda,
1995-04-09,,52.0142,26.8085,Boarding,IRN,83.84692291,,Sea Wolf 102,
1995-04-09,,120.82,18.7616667,Attempted,PHL,12.89720573,,Nikolay Kuznetsov,
1995-04-11,,121.625,19.715,Attempted,PHL,33.45507754,,LNG Rheingas,
1995-04-12,,117.25,-1.0416667,Boarding,IDN,11.65232426,,Arctic Trader,
1995-04-18,,114.2617,11.0466667,Hijacked,CHN,1.142258373,,Vietxo 8,
1995-04-18,,104.75,-2.9765,Boarding,IDN,32.92288346,,Hafetzah,
1995-04-18,,106.6,7.9166667,Attempted,VNM,81.24360354,,Kuanyin,
1995-04-22,,50.8,12.15,Hijacked,SOM,17.79867237,,Radnor,
1995-04-26,,106.875,-6.0886667,Boarding,IDN,4.407541808,,Bass Reefer,
1995-04-28,,50.7167,12.1333333,Attempted,SOM,17.39666062,,Ming Bright,
1995-04-28,,-46.2872,-23.9761667,Boarding,BRA,0.5597724632,,Nordcloud,
1995-04-29,,124.6,5.8833333,Attempted,PHL,11.26466144,,Johanna,
1995-05-01,,53.3833,12.95,Attempted,YEM,29.20640232,,Darya Geeth,
1995-05-01,,53.3833,12.95,Attempted,YEM,29.20640232,,DSR Tianjin,
1995-05-01,,105.9167,-6.0433333,Boarding,IDN,4.388564132,,LPG/C Prins Philips Willem,
1995-05-03,,51.0333,12.2,Attempted,SOM,30.40064263,,Liliana Dimitrova,
1995-05-03,,50.0678,4.7999,Attempted,SOM,174.5903662,,LPG Gas Al-Kuwait,
1995-05-03,,50.85,12.1,Attempted,SOM,13.51596071,,Mecca 1,
1995-05-05,,118.1167,5.8266667,Boarding,MYS,2.313767863,,LPG Java Rainbow,
1995-05-05,,124.3167,5.8,Attempted,PHL,36.23712004,,LPG Lady Rowena,
1995-05-09,,100.6067,13.3516667,Boarding,THA,18.45410035,,Zim Bangkok,
1995-05-10,,-43.1667,-22.8933333,Boarding,BRA,0.5391398523,,Stolt Spur,
1995-05-11,,11.3063,56.5878,,DNK,17.20167168,,Anholt,
1995-05-12,,43.435,12.0072,Hijacked,DJI,4.654284947,,SB408,
1995-05-12,,113.5333,22.1333333,Boarding,CHN,1.043415764,,Egmondgracht,
1995-05-14,,113.2753,23.108,Boarding,CHN,12.93366196,,Quebec,
1995-05-15,,112.7467,-7.1885,Boarding,IDN,1.852101831,,Zervos,
1995-05-16,,-43.1667,-22.8933333,Boarding,BRA,0.5391398523,,IBN Qutalbah,
1995-05-18,,104.1099,1.323,Boarding,MYS,5.049369497,,SMF 1104,
1995-05-21,,113.8,22.1166667,Boarding,CHN,10.11223592,,Great Cheer,
1995-05-31,,50.0833,12.015,Hijacked,SOM,49.57221637,,Anomis,
1995-05-31,,50.0833,12.015,Hijacked,SOM,49.57221637,,Bonsella,
1995-06-02,,107.0568,10.344,Boarding,VNM,3.669869041,,Petro Concord,
1995-06-03,,113.4317,16.2216667,Attempted,CHN,88.67048487,,Amer Prabha,
1995-06-04,,121.9667,19.35,Attempted,PHL,15.70478852,,Svea Trader,
1995-06-07,,70.3167,23,Boarding,IND,5.796385225,,Agrilia,
1995-06-09,,114.1333,22.15,Boarding,CHN,3.214374042,,Robin,
1995-06-10,,114.5333,22.7,Hijacked,CHN,0.098898336,,Faesongsan,
1995-06-12,,113.8333,22.1833333,Hijacked,CHN,2.039121421,,GUIA,
1995-06-14,,107.0568,10.344,Boarding,VNM,3.669869041,,Ocean Bird,
1995-06-16,,104.75,-2.9765,Boarding,IDN,32.92288346,,Hafetzah,
1995-06-23,,102.5594,10.2285,Hijacked,KHM,89.31432158,,Hye Mieko,
1995-06-23,,110.4,21.1765,Boarding,CHN,0.06041750519,,Prince of Tokyo,
1995-06-24,,106.875,-6.0886667,Attempted,IDN,4.407541808,,Kassos,
1995-06-30,,104.9167,-2.8033333,Boarding,IDN,31.25467187,,Petro Concord,
1995-07-04,,108.3817,21.4616667,Boarding,CHN,11.06962341,,Dona,
1995-07-04,,101.7333,2.1666667,Attempted,IDN,8.586976628,,General Monarch,
1995-07-07,,70.3221,22.8783,Boarding,IND,4.44019471,,Al Wataniah,
1995-07-07,,70.2203,22.8196667,Boarding,IND,10.43106631,,Al Natania,
1995-07-14,,114.14,20.1166667,Boarding,CHN,208.529519,,Summer,
1995-07-18,,114.1667,22.1166667,Boarding,CHN,7.213017487,,Amorgos,
1995-07-19,,113.8933,22.0733333,Boarding,CHN,14.53120548,,Ikan Selangat,
1995-07-20,,115.8583,-5.0166667,Attempted,IDN,22.28486119,,ICL Rajarajan,
1995-07-23,,104.9167,-2.3,Boarding,IDN,1.660206584,,Trans Hercules,
1995-07-23,,113.8,22.1166667,Boarding,CHN,10.11223592,,Stalo,
1995-07-23,,-77.1667,-12.0167,Boarding,PER,2.455616305,,LPG EMSGAS,
1995-07-24,,114.24,22.1266667,Hijacked,CHN,7.524708543,,Milen Trung,
1995-07-30,,-43.1667,-22.8933333,Boarding,BRA,0.5391398523,,Hanso Clipper,
1995-07-31,,114.1333,22.15,Boarding,CHN,3.214374042,,MT Star Orchid,
1995-07-31,,114.1333,22.15,Boarding,CHN,3.214374042,,Sang Thai,
1995-08-01,,113.8933,22.075,Attempted,CHN,14.34757456,,MV Ikan Selangat,
1995-08-01,,91.7932,22.2166667,Boarding,BGD,2.329971162,,Inzhener Yamburenko,
1995-08-02,,105.1667,-5.4666667,Boarding,IDN,8.927250019,,Gotze Delchev,
1995-08-04,,79.8432,6.95,Boarding,LKA,1.450377734,,Nedlloyd Sao Paolo,
1995-08-05,,113.4167,23.08333333,Boarding,CHN,1.514723112,,Her Fah,
1995-08-06,,114.16,22.1166667,Boarding,CHN,7.032910972,,Her Fah,
1995-08-07,,114.6833,22.0666667,Attempted,CHN,38.52289236,,President Harrison,
1995-08-10,,3.4167,6.4166667,Boarding,NGA,0.5737189299,,Kelvin Fortune,
1995-08-10,,113.7917,22.1216667,Boarding,CHN,10.08155668,,Erasmusgracht,
1995-08-14,,107.85,6.9,Attempted,IDN,235.9127034,,British Esk,
1995-08-14,,114.1333,22.15,Boarding,CHN,3.214374042,,National Dignity,
1995-08-16,,4.6667,5.1141,Boarding,NGA,72.82304981,,Lady Diana,
1995-08-22,,-43.1667,-22.8933333,Boarding,BRA,0.5391398523,,Nedlloyd Cristobal,
1995-08-22,,108.0833,0.75,Boarding,IDN,60.83166495,,Essberger Pilot,
1995-08-23,,-46.2872,-23.9761667,Attempted,BRA,0.5597724632,,Tamatiki,
1995-08-23,,-43.1667,-22.8933333,Boarding,BRA,0.5391398523,,Nedlloyd Cristobal,
1995-08-31,,114.9,21.4166667,Attempted,CHN,93.05592021,,Aries,
1995-09-10,,88.0717,21.8783333,Boarding,IND,0.5280408259,,Sunny Diamond,
1995-09-13,,102,11.25,Hijacked,THA,69.90770353,,Anna Sierra,
1995-09-13,,100.6067,13.3516667,Boarding,THA,18.45410035,,Nzol'Contender,
1995-09-20,,79.8432,6.95,Boarding,LKA,1.450377734,,Tiger Speed,
1995-09-28,,79.8133,7,Boarding,LKA,5.226616052,,Cathay Rainbow,
1995-10-04,,17.1932,40.4265,Boarding,ITA,0.901596811,,Duhallow,
1995-10-07,,70.2203,22.8196667,Attempted,IND,10.43106631,,Torm Gotland,
1995-10-08,,70.2195,22.8937,Boarding,IND,6.669700385,,Bow Lady,
1995-10-10,,88.3167,22.53333333,Boarding,IND,40.73984547,,Yun Cheng,
1995-10-15,,-46.3167,-24.0925,Boarding,BRA,8.432210554,,CMBT America,
1995-10-15,,114.1833,22.26666667,Boarding,CHN,1.477877473,,Australian Endeavour,
1995-10-17,,79.8432,6.95,Boarding,LKA,1.450377734,,Hastula,
1995-10-18,,119.4,-5.133333333,Boarding,IDN,1.096666353,,Atoyak,
1995-10-18,,100.6067,13.3516667,Boarding,THA,18.45410035,,Socofl Wave,
1995-10-19,,-46.2872,-23.9761667,Boarding,BRA,0.5597724632,,Nedlloyd Zeelandia,
1995-10-19,,-46.2872,-23.9761667,Boarding,BRA,0.5597724632,,TRSL Concord,
1995-10-23,,-43.1667,-22.8933333,Boarding,BRA,0.5391398523,,Siboeif,
1995-10-30,,-13.7167,9.516666667,Boarding,GIN,0.6667182262,,Dodo,
1995-10-30,,107.3167,-2.97,Boarding,IDN,9.24768267,,Charisma,
1995-10-31,,98.7,4.65,Boarding,IDN,53.24999618,,Kota Barlian,
1995-10-31,,118.8833,4.15,Boarding,MYS,36.78960066,,Tropical 88,
1995-11-01,,114.1667,22.1166667,Boarding,CHN,7.213017487,,Nicosia,
1995-11-03,,-46.2872,-23.9761667,Boarding,BRA,0.5597724632,,Nedlloyd Zeelandia,
1995-11-04,,9.5,0.283333333,Boarding,GAB,0.8707027353,,Kuusalu,
1995-11-09,,118.2061,-2.1352,Boarding,IDN,86.28829406,,Ivory Ace,
1995-11-12,,108.3645,21.5778,Boarding,CHN,2.622715726,,Rainbow Sky,
1995-11-12,,118.0808,5.805,Boarding,MYS,1.147709756,,Jianshe 35,
1995-11-14,,107.215,-4.5116667,Boarding,IDN,144.9356763,,Stolt Emerald,
1995-11-15,,39.3533,-6.775,Boarding,TZA,5.977859498,,Eurogracht,
1995-11-16,,105.999,1.0186667,Boarding,IDN,127.6651934,,Scan Eagle,
1995-11-25,,114.1833,22.26666667,Boarding,CHN,1.477877473,,Yeung Kong,
1995-11-25,,114.2,22.2666667,Boarding,CHN,2.477473174,,Sokoinki,
1995-11-26,,90.025,21.9698333,Attempted,BGD,2.04946385,,Triptolemos,
1995-11-27,,116.7667,-1.4433333,Boarding,IDN,8.203035197,,Stena Concert,
1995-12-05,,128,9.6666667,Attempted,PHL,199.3326679,,Orhan Ekinci,
1995-12-12,,121.0432,13.75,Boarding,PHL,1.029525649,,Lady Rowena,
1995-12-14,,117.25,-1.0383333,Boarding,IDN,11.44660674,,Pearl Prosperity,
1995-12-17,,-46.2872,-23.9761667,Boarding,BRA,0.5597724632,,Zim Santos,
1995-12-22,,106.875,-6.0886667,Boarding,IDN,4.407541808,,Tacora,
1995-12-23,,116.66,-1.6916667,Boarding,IDN,14.81403847,,Magnus Stove,
1995-12-27,,-4.0283,5.2166667,Boarding,CIV,3.971128552,,Columbine,
1996-01-03,,79.8517,6.9583333,Attempted,LKA,0.5753896997,,Ardmore,
1996-01-03,,112.7235,-7.2038333,Boarded,IDN,1.955988514,,Juntha Sarunpak,
1996-01-04,,-74.7583,10.9583333,Boarded,COL,12.75298674,,Puma,
1996-01-05,,-58.1875,6.6933333,Attempted,GUY,13.42609074,,Kamillo Sjenfuegoss,
1996-01-07,,100.5983,13.6908333,Boarded,THA,8.694295687,,Bonsoon 2,
1996-01-08,,79.8517,6.9583333,Attempted,LKA,0.5753896997,,Nedlloyd Rio,
1996-01-08,,112.6633,7.1083333,Boarded,MYS,313.675992,,Ossolineum,
1996-01-08,,112.7235,-7.2038333,Boarded,IDN,1.955988514,,Celje,
1996-01-10,,79.8517,6.9583333,Boarded,LKA,0.5753896997,,Med Marseilles,
1996-01-12,,-77.205,-12.1283333,Boarded,PER,1.488871853,,Abiasgracht,
1996-01-13,,106.9025,-6.0976667,Boarded,IDN,7.190381219,,Heug-a-Strait,
1996-01-16,,112.7235,-7.2038333,Boarded,IDN,1.955988514,,Botic,
1996-01-16,,39.7363,41.0033333,Hijacked,TUR,1.624357473,,Avrasya,
1996-01-18,,112.6633,7.1083333,Boarded,MYS,313.675992,,Y. Lutibrodski,
1996-01-19,,100.5983,13.6908333,Boarded,THA,8.694295687,,Cotnari,
1996-01-20,,112.6633,7.1083333,Attempted,MYS,313.675992,,Y. Lutibrodski,
1996-01-20,,123.8667,30.8333333,Attempted,CHN,128.628867,,Grigorly Petrenko,
1996-01-21,,39.2765,-6.8265,Boarded,TZA,0.6087118768,,Rundale,
1996-01-27,,105.9193,-6.0418333,Boarded,IDN,4.712374625,,Norgas Pioneer,
1996-01-29,,96.1687,6.7595,Boarded,IDN,132.2134666,,Lily,
1996-02-07,,70.2203,23.0243333,Attempted,IND,2.981710221,,Norgas Trader,
1996-02-07,,-4,5.2931667,Boarded,CIV,1.268660948,,Mega Sun,
1996-02-08,,-76.7533,17.7366667,Boarded,JAM,21.2955163,,Norgas Transported,
1996-02-09,,106.8867,-6.0338333,Boarded,IDN,9.348946503,,Equator Crystal,
1996-02-11,,106.8867,-6.0338333,Boarded,IDN,9.348946503,,Cimbria,
1996-02-11,,104.7218,1.289,Attempted,IDN,16.84261994,,Dragon Komodo,
1996-02-13,,112.7235,-7.2038333,Boarded,IDN,1.955988514,,A. Selamat,
1996-02-19,,100.5983,13.6908333,Boarded,THA,8.694295687,,Berge Commander,
1996-02-26,,121.9964,6.7427,Boarded,PHL,2.311607135,,MN-3 Nomina,
1996-02-27,,70.2203,23.0243333,Boarded,IND,2.981710221,,Norgas Trader,
1996-03-04,,103.75,10.45,Attempted,KHM,1.627596787,,Mint Zoom,
1996-03-04,,120.9428,14.5211667,Boarded,PHL,3.658996985,,Prins Alexander,
1996-03-05,,120.9428,14.5211667,Boarded,PHL,3.658996985,,Emmagracht,
1996-03-05,,102.4633,1.85,Attempted,MYS,20.90607793,,Mighty Tide,
1996-03-06,,-56.204,-34.9033333,Boarded,URY,0.5180345995,,Nedlloyd Recife,
1996-03-08,,120.9428,14.5211667,Boarded,PHL,3.658996985,,Sea Muse,
1996-03-09,,91.8267,22.2383333,Boarded,BGD,0.8313376995,,Eagle Prestige,
1996-03-11,,-4,5.2931667,Attempted,CIV,1.268660948,,Mega Sun,
1996-03-12,,100.6333,13.3333333,Boarded,THA,20.10208534,,Norbulk Pine,
1996-03-12,,106.9,-6,Boarded,IDN,10.97127439,,CHL Innovator,
1996-03-16,,112.9535,3.2546667,Boarded,MYS,11.92311033,,Finima,
1996-03-18,,100.5983,13.6908333,Attempted,THA,8.694295687,,Eburna,
1996-03-19,,112.95,3.2546667,Boarded,MYS,12.12474512,,Waglan Light,
1996-03-24,,114.1558,22.3193333,Boarded,CHN,0.5009985637,,Ekhabi,
1996-03-27,,-13.7093,9.5098333,Boarded,GIN,0.3521903491,,Esperanza,
1996-03-28,,100.5983,13.6908333,Boarded,THA,8.694295687,,Hansa Rostok,
1996-03-28,,98.7007,3.7836667,Boarded,IDN,2.482068608,,Sembawang,
1996-03-29,,112.32,11.79,Hijacked,CHN,228.3957812,,Elaine,
1996-03-30,,-46.305,-24.637,Boarded,BRA,67.33122822,,Vogtland,
1996-03-30,,114,20.1166667,Boarded,CHN,204.5015824,,Asia Venus,
1996-04-06,,100.5983,13.6908333,Boarded,THA,8.694295687,,Alam Tenteram,
1996-04-08,,114.1558,22.3193333,Boarded,CHN,0.5009985637,,Rathrowan,
1996-04-08,,-38.5045,-12.9551667,Boarded,BRA,1.987758077,,Clipper Sao Paulo,
1996-04-11,,112.7235,-7.2038333,Boarded,IDN,1.955988514,,Bunga Melor Dua,
1996-04-11,,98.7007,3.7836667,Boarded,IDN,2.482068608,,Bunga Tanjung,
1996-04-12,,106.8867,-6.0338333,Boarded,IDN,9.348946503,,Southgate,
1996-04-18,,114.1558,22.3193333,Boarded,CHN,0.5009985637,,Darya Kamal,
1996-04-20,,112.8667,3.1833333,Boarded,MYS,12.66909826,,Asean Success,
1996-04-21,,100.5983,13.6908333,Attempted,THA,8.694295687,,Chuy,
1996-04-21,,112.8667,3.1833333,Boarded,MYS,12.66909826,,Alpha Prestige,
1996-04-24,,5.4483,5.4333333,Boarded,NGA,1.000991293,,Aros,
1996-04-24,,95.1267,6.0711667,Attempted,IDN,20.29741451,,Gotia,
1996-04-25,,42.9565,13.6773,Boarded,YEM,19.57546414,,Sun Fish 3,
1996-04-26,,-43.1913,-22.8765,Boarded,BRA,2.178646678,,Catharina Oldendorff,
1996-04-27,,104.8322,-2.9922,Boarded,IDN,40.81474507,,Sari Marina,
1996-05-01,,113.9138,22.0248,Boarded,CHN,14.87579537,,M62935A,
1996-05-02,,-43.1913,-22.8765,Boarded,BRA,2.178646678,,San Marino,
1996-05-02,,-52.0757,-32.0536667,Boarded,BRA,1.852696888,,Nemea,
1996-05-02,,114.1833,22.26666667,Boarded,CHN,1.477877473,,Zim Canada,
1996-05-04,,100.5983,13.6908333,Boarded,THA,8.694295687,,Mare Balticum,
1996-05-07,,-46.305,-24.637,Boarded,BRA,67.33122822,,Masovia,
1996-05-08,,-77.205,-12.1283333,Boarded,PER,1.488871853,,Isla Bartolome,
1996-05-16,,91.8267,22.2383333,Boarded,BGD,0.8313376995,,British Esk,
1996-05-16,,100.825,13.138,Boarded,THA,7.253749182,,Devotion,
1996-05-16,,-38.4867,-12.7916667,Boarded,BRA,1.35113377,,Socofi,
1996-05-17,,-80.0867,-2.52,Boarded,ECU,4.446084967,,Porer,
1996-05-19,,104.7218,1.289,Hijacked,IDN,16.84261994,,Samudra Samrat,
1996-05-20,,46.974,-8.0018,Hijacked,SYC,158.6908162,,SB408,
1996-05-21,,116.5165,-8.7838,Boarded,IDN,0.6614375351,,Pan United,
1996-05-27,,79.8517,6.9583333,Boarded,LKA,0.5753896997,,Aris,
1996-05-31,,-77.1617,3.6566667,Boarded,COL,0.08095814426,,Holck Larsen,
1996-06-08,,-80.0867,-2.52,Boarded,ECU,4.446084967,,FMG Quito,
1996-06-10,,117.55,19.6333333,Attempted,PHL,341.3594159,,Nordpol Ozel 2,
1996-06-12,,88.0717,21.8783333,Boarded,IND,0.5280408259,,Amer Energy,
1996-06-14,,106.8867,-6.0338333,Boarded,IDN,9.348946503,,Wana Bhum,
1996-06-15,,-38.5045,-12.9551667,Boarded,BRA,1.987758077,,United Selma,
1996-06-16,,79.8245,6.9378333,Boarded,LKA,3.749889548,,Gulf Spirit,
1996-06-21,,118.3833,19.1333333,Attempted,PHL,240.4284264,,Hal Soong,
1996-06-23,,-38.5045,-12.9551667,Boarded,BRA,1.987758077,,Bow Fortune,
1996-06-27,,101.8333,2.3,Attempted,MYS,11.03882712,,Alexia,
1996-06-27,,117.1383,-0.5401667,Boarded,IDN,33.74762115,,Vista,
1996-07-08,,-38.4867,-12.7916667,Boarded,BRA,1.35113377,,Kapitan Betkher,
1996-07-09,,50.3683,29.1875,Boarded,IRN,4.714377104,,Berge Stadt,
1996-07-10,,79.8517,6.9583333,Attempted,LKA,0.5753896997,,Unknown,
1996-07-10,,79.8517,6.9583333,Boarded,LKA,0.5753896997,,Unknown,
1996-07-10,,79.8517,6.9583333,Attempted,LKA,0.5753896997,,Unknown,
1996-07-10,,105.9535,-6.0081667,Boarded,IDN,1.1166917,,You Yi,
1996-07-13,,100.5983,13.6908333,Boarded,THA,8.694295687,,Shalamar,
1996-07-25,,-38.5045,-12.9551667,Boarded,BRA,1.987758077,,Avila,
1996-07-26,,106.8867,-6.0338333,Boarded,IDN,9.348946503,,Flaxservice 3,
1996-07-28,,-17.4247,14.676,Boarded,SEN,0.2610339344,,Bow Eagle,
1996-08-01,,105.9193,-6.0418333,Boarded,IDN,4.712374625,,Max Planck,
1996-08-02,,-70.03,18.4188333,Boarded,DOM,1.640362846,,Tol Trader,
1996-08-02,,39.2765,-6.8265,Boarded,TZA,0.6087118768,,Mimosa,
1996-08-03,,114.1167,22.1333333,Attempted,CHN,4.880444312,,Maritime Grace,
1996-08-09,,70.2203,23.0243333,Boarded,IND,2.981710221,,Bow Spring,
1996-08-12,,-38.5045,-12.9551667,Boarded,BRA,1.987758077,,Jo Elm,
1996-08-13,,-43.1913,-22.8765,Boarded,BRA,2.178646678,,Nordkap,
1996-08-14,,39.2765,-6.8265,Attempted,TZA,0.6087118768,,Skauholt,
1996-08-15,,114.135,22.305,Boarded,CHN,1.851021239,,Islas Gas,
1996-08-18,,109.3579,-0.0179,Attempted,IDN,7.122301084,,Falmast,
1996-08-19,,100.8905,13.071,Boarded,THA,1.391781685,,Thor Marie,
1996-08-20,,14.06,36.76,Boarded,ITA,36.21760586,,Renalo,
1996-08-21,,106.9025,-6.0976667,Boarded,IDN,7.190381219,,Cheklang,
1996-08-24,,70.2203,23.0243333,Boarded,IND,2.981710221,,Bow Eagle,
1996-08-25,,0.007,5.6258333,Boarded,GHA,3.061197502,,Serov,
1996-08-28,,98.7007,3.7836667,Boarded,IDN,2.482068608,,Wawasan Murni,
1996-08-30,,117.1383,-0.5401667,Boarded,IDN,33.74762115,,Maritime Mosaic,
1996-09-01,,105.5,3.2166667,Attempted,IDN,27.20917711,,Joanna V,
1996-09-03,,106.8867,-6.0338333,Boarded,IDN,9.348946503,,Dinoussian Strength,
1996-09-03,,-17.4247,14.676,Attempted,SEN,0.2610339344,,Philippines,
1996-09-05,,-38.5045,-12.9551667,Boarded,BRA,1.987758077,,Sergo Zakariadze,
1996-09-06,,91.8267,22.2383333,Boarded,BGD,0.8313376995,,Breeze,
1996-09-09,,105.9922,-5.9531667,Boarded,IDN,3.737279898,,Tarquin Navigator,
1996-09-14,,107.25,-2.6667,Attempted,IDN,25.5206313,,Senho,
1996-09-14,,105.9922,-5.9531667,Boarded,IDN,3.737279898,,Bariki,
1996-09-15,,106.9025,-6.0976667,Boarded,IDN,7.190381219,,Bunga Kesidang,
1996-09-16,,98.7007,3.7836667,Boarded,IDN,2.482068608,,Iver Pride,
1996-09-21,,70.2203,23.0243333,Boarded,IND,2.981710221,,Oriental Fern,
1996-09-22,,119.615,5.0541667,Boarded,PHL,14.54552355,,Britoil 15,
1996-09-25,,-4.03,5.1933333,Boarded,CIV,5.691111947,,Finnsnes,
1996-09-25,,98.7007,3.7836667,Boarded,IDN,2.482068608,,Sembawang,
1996-09-26,,-43.1913,-22.8765,Boarded,BRA,2.178646678,,Trans Scandic,
1996-09-26,,117.1383,-0.5401667,Boarded,IDN,33.74762115,,Star Glory,
1996-09-26,,19.9073,39.6241667,Boarded,GRC,0.6195832765,,Carenia,
1996-09-27,,120.0833,17.7833333,Attempted,PHL,30.90436355,,Alexandergracht,
1996-09-28,,98.7007,3.7836667,Attempted,IDN,2.482068608,,Bunga Sesumba,
1996-09-30,,-13.7093,9.5098333,Boarded,GIN,0.3521903491,,Lady Lela,
1996-09-30,,5.25,5.6,Boarded,NGA,1.527515022,,Amursk,
1996-10-01,,88.0717,21.8783333,Boarded,IND,0.5280408259,,Parapola,
1996-10-02,,105.9922,-5.9531667,Boarded,IDN,3.737279898,,Stolt Sunrise,
1996-10-03,,98.7007,3.7836667,Boarded,IDN,2.482068608,,Osprey Sky,
1996-10-05,,-77.1617,3.6566667,Attempted,COL,0.08095814426,,CSAV Longquimay,
1996-10-07,,-80.0867,-2.52,Boarded,ECU,4.446084967,,CSAV Longquimay,
1996-10-10,,106.8867,-6.0338333,Boarded,IDN,9.348946503,,Daphne,
1996-10-12,,-13.95,8.8083,Boarded,GIN,74.36739052,,Aley III,
1996-10-18,,17.1887,40.4861667,Boarded,ITA,0.4878167669,,Berge Adria,
1996-10-18,,0.007,5.6258333,Boarded,GHA,3.061197502,,Virana,
1996-10-20,,98.7007,3.7836667,Boarded,IDN,2.482068608,,Bunga Cenderawasih,
1996-10-26,,106.553,-5.8214,Attempted,IDN,20.47621274,,Awobasan,
1996-10-27,,100.7333,12.8566667,Attempted,THA,15.68184015,,Mathios,
1996-10-27,,107.3,-2.85,Boarded,IDN,6.066922591,,Norgas Energy,
1996-10-31,,98.7007,3.7836667,Boarded,IDN,2.482068608,,Leo M,
1996-11-05,,53.8104,12.1614,Attempted,YEM,16.30851126,,Scoff Reefer,
1996-11-09,,105.3067,-5.4561667,Boarded,IDN,1.174827798,,Sembawang,
1996-11-09,,105.9535,-6.0081667,Boarded,IDN,1.1166917,,Arktis Force,
1996-11-11,,107.2833,-2.9166667,Boarded,IDN,7.241123039,,Sun Shine,
1996-11-11,,107.25,-2.6667,Boarded,IDN,25.5206313,,Om Sunshine,
1996-11-13,,107.3,-2,Boarded,IDN,74.50181642,,Olga,
1996-11-13,,114.4883,22.2083333,Boarded,CHN,19.24287178,,Cosmobil Ace,
1996-11-14,,-43.1913,-22.8765,Boarded,BRA,2.178646678,,San Marino,
1996-11-14,,118.0555,5.815,Boarded,MYS,0.7614011037,,Bunga Semarak,
1996-11-19,,80.305,13.1066667,Attempted,IND,0.9518745628,,Al Badlyah,
1996-11-19,,104.051,1.2705,Hijacked,IDN,9.403263468,,Suci,
1996-11-24,,104.1533,-0.6133333,Boarded,IDN,19.04154624,,Katong,
1996-12-02,,106.8867,-6.0338333,Boarded,IDN,9.348946503,,Opal Ray,
1996-12-06,,70.2203,23.0243333,Boarded,IND,2.981710221,,Sanmar Sentinel,
1996-12-08,,-13.2075,8.4898333,Boarded,SLE,0.533178843,,Altair,
1996-12-26,,91.8267,22.2383333,Boarded,BGD,0.8313376995,,Stamford,
1997-01-04,,106.875,-6.0886667,Boarding,IDN,4.407541808,,Petrobulk Racer,
1997-01-06,,-0.0167,5.616666667,Hijacked,GHA,3.552274212,,Jahan,
1997-01-08,,122.185,37.4386667,Boarding,CHN,1.329001911,,Cheebong,
1997-01-08,,122.185,37.4386667,Boarding,CHN,1.329001911,,Jing Jang,
1997-01-08,,79.8432,6.95,Boarding,LKA,1.450377734,,Mumbay Bay,
1997-01-11,,33.3406,40.6047,Attempted,TUR,146.0282964,,Ivan Chernych,
1997-01-13,,106.875,-6.0886667,Boarding,IDN,4.407541808,,Petrobulk Racer,
1997-01-14,,120.7555,14.5226667,Boarding,PHL,14.96707829,,Ocean Prize,
1997-01-17,,-79.9,-2.2666667,Boarding,ECU,3.859231799,,Tamamonta,
1997-01-18,,112.7467,-7.1885,Boarding,IDN,1.852101831,,Auk Arrow,
1997-01-18,,112.7467,-7.1885,Boarding,IDN,1.852101831,,Nandu Arrow,
1997-01-18,,119.1333,22.0666667,Attempted,TWN,131.1363959,,Paramushir,
1997-01-20,,116.7932,-1.25,Boarding,IDN,0.2776971814,,Maersk Bovavista,
1997-01-21,,121,14.5931667,Boarding,PHL,4.438529578,,Sea Rainbow,
1997-01-22,,-73.4121,-4.3684,Boarding,ECU,728.5149482,,Rio Amazonis,
1997-01-27,,121,14.5931667,Boarding,PHL,4.438529578,,Eagle Prosperity,
1997-02-01,,48.4136,4.9115,Boarding,SOM,20.83466191,,Clove,
1997-02-05,,-4,5.2931667,Boarding,CIV,1.268660948,,Kenmare,
1997-02-05,,103.05,10.7166667,,KHM,16.96641193,,Lung Shun 8,
1997-02-07,,99.6682,6.35,Hijacked,MYS,1.746681948,,Zaidenha,
1997-02-09,,34.6432,36.7666667,Attempted,TUR,2.859661526,,Tirana,
1997-02-09,,-70,18.4166667,Boarding,DOM,0.4336173895,,Anthos,
1997-02-09,,121,14.5931667,Boarding,PHL,4.438529578,,Yakov Bondarenko,
1997-02-09,,121.774,12.8797,Boarding,PHL,6.216267808,,Rainbow Dragon,
1997-02-13,,76.25,9.9666667,Boarding,IND,0.4242580595,,Adamas,
1997-02-15,,13.25,-8.8,Boarding,AGO,0.5092156691,,Mas Venture,
1997-02-18,,39.2833,-6.833333333,Boarding,TZA,0.4575872123,,La Bourdannais,
1997-02-19,,41.638,42.1641,Boarding,GEO,1.62331264,,Lady Linda,
1997-02-23,,121.4077,7.5827,Hijacked,PHL,70.6838394,,Fortune,
1997-02-25,,112.7467,-7.1885,Boarding,IDN,1.852101831,,Siskin Arrow,
1997-02-28,,89.5765,22.4765,Attempted,BGD,16.38672588,,Gold Spring,
1997-03-03,,-43.1667,-22.8933333,Boarding,BRA,0.5391398523,,Mt Chemical Ruby,
1997-03-05,,104.6,1.5666667,Hijacked,MYS,35.57934957,,Wint Thai No. 1,
1997-03-07,,50.8333,12.1166667,Attempted,SOM,14.62774514,,Helena,
1997-03-09,,-43.1667,-22.8933333,Boarding,BRA,0.5391398523,,Libra Buenos Aires,
1997-03-13,,121.7486,6.8048,Boarding,PHL,17.85949013,,Rakam,
1997-03-15,,100.8667,13.0666667,Attempted,THA,2.922736055,,Oriental Bright,
1997-03-16,,105.1667,-5.4666667,Boarding,IDN,8.927250019,,Great Calm,
1997-03-18,,78.3,8.75,Boarding,IND,9.487879643,,Grobnik,
1997-03-28,,108.3251,11.0698,Attempted,VNM,7.063204293,,Ratana Sopa,
1997-03-28,,-4,5.2931667,Boarding,CIV,1.268660948,,Jean Alleaume,
1997-03-31,,-46.2872,-23.9761667,Boarding,BRA,0.5597724632,,Berge Saga,
1997-04-01,,-17.3667,14.6666667,Boarding,SEN,6.539971202,,CBMT Express,
1997-04-02,,-13.7167,9.5166667,Attempted,GIN,0.6667148247,,South County,
1997-04-03,,-43.1667,-22.8933333,Boarding,BRA,0.5391398523,,Hansa Carrier,
1997-04-03,,49.4167,-18.15,Boarding,MDG,1.742862994,,Nedloyd Main,
1997-04-03,,103.7333,8.9166667,Attempted,VNM,113.6397917,,Zim Kaohsiung 1,
1997-04-12,,-17.3667,14.6666667,Boarding,SEN,6.539971202,,Trein Maesk,
1997-04-17,,49.3771,6.9092,Hijacked,SOM,9.783124552,,Bahari Hindi,
1997-04-18,,100.825,13.138,Hijacked,THA,7.253749182,,Lawas Cantik,
1997-04-21,,-76.8382,17.975,Boarding,JAM,1.265529862,,Sydney Star,
1997-04-22,,-13.2265,8.5,Boarding,SLE,0.743618453,,Antartica Elrus,
1997-04-22,,89.5765,22.4765,Boarding,BGD,16.38672588,,Alam Talang,
1997-04-23,,107.25,-2.6667,Attempted,IDN,25.5206313,,Kota Hadiah,
1997-04-27,,107.25,-2.6667,Boarding,IDN,25.5206313,,Cape Sable,
1997-04-28,,105.95,-6.0166667,Boarding,IDN,2.133135886,,Jewel I,
1997-04-29,,121.9667,6.7,Attempted,PHL,1.07363627,,Miguel Lujan,
1997-04-29,,121.9667,6.7,Attempted,PHL,1.07363627,,Leonora,
1997-05-01,,9.6667,4.0431667,Boarding,CMR,1.430647464,,Rybinsk,
1997-05-01,,113.8265,23.0666667,Attempted,CHN,5.64144255,,Silver Sky,
1997-05-03,,98.6767,3.7766667,Boarding,IDN,4.815190419,,Sun Sapphire,
1997-05-04,,41.9016,14.078,Boarding,ERI,19.39012195,,Vasilios II,
1997-05-04,,41.9016,14.078,Boarding,ERI,19.39012195,,Vasilios XII,
1997-05-04,,70.2203,22.8196667,Boarding,IND,10.43106631,,Prins Alexander,
1997-05-06,,116.7932,-1.25,Boarding,IDN,0.2776971814,,Neptune Gale,
1997-05-09,,-17.3667,14.6666667,Boarding,SEN,6.539971202,,Zaccar,
1997-05-11,,-46.2872,-23.9761667,Boarding,BRA,0.5597724632,,Jummegas,
1997-05-12,,3.3767,6.45,Boarding,NGA,0.745848921,,Meghna,
1997-05-16,,148.3836,-10.3323,Boarding,PNG,14.72257225,,Got-Cha-Covered,
1997-05-18,,-46.2872,-23.9761667,Boarding,BRA,0.5597724632,,Ilya Ehrenberg,
1997-05-20,,-52.0757,-32.0536667,Boarding,BRA,1.852696888,,Panaustral,
1997-05-20,,-43.1667,-22.8933333,Boarding,BRA,0.5391398523,,CALAPALOS,
1997-05-20,,19.0126,40.5383,Boarding,ALB,26.52512502,,Sagittarius,
1997-05-25,,9.6667,4.0431667,Boarding,CMR,1.430647464,,Torm Freya,
1997-05-29,,81.2333,8.566666667,Boarding,LKA,1.032774076,,Athena,
1997-05-30,,104.0517,1.1245,Boarding,IDN,3.185194005,,Sinfa,
1997-05-30,,5.396,52.9646,Boarding,NLD,13.45071556,,Feeling,
1997-05-30,,-9.425,39.364,Boarding,PRT,1.837326481,,Fair Lady,
1997-05-31,,70.2203,22.8196667,Boarding,IND,10.43106631,,ICL Raja Rajan,
1997-06-03,,-64.6267,10.25,Boarding,VEN,0.5574186848,,Nord-Jahre,
1997-06-04,,-70,18.4166667,Boarding,DOM,0.4336173895,,Nordfarer,
1997-06-13,,117.538,0.0248333,Boarding,IDN,2.551015665,,Bernadette T.,
1997-06-13,,117.538,0.0248333,Boarding,IDN,2.551015665,,Bernadette T.,
1997-06-13,,-17.3667,14.6666667,Boarding,SEN,6.539971202,,Nord-Jahre,
1997-06-13,,106.9667,-2.8333,Boarding,IDN,7.633603583,,ACX Lilac,
1997-06-15,,-46.2872,-23.9761667,Boarding,BRA,0.5597724632,,Al Burgan,
1997-06-17,,39.2833,-6.833333333,Boarding,TZA,0.4575872123,,Stella TH,
1997-06-19,,117.15,-0.5265,Boarding,IDN,32.43935797,,Maritime Light,
1997-06-23,,70.2203,22.8196667,Boarding,IND,10.43106631,,Rita,
1997-06-24,,106.0038,-5.9366667,Boarding,IDN,2.215509751,,Sky Ace,
1997-06-26,,105.95,-6.0166667,Boarding,IDN,2.133135886,,Noble Glory,
1997-06-28,,101.4,3,Attempted,MYS,3.033395033,,Ibn Qutaibah,
1997-06-30,,103.0667,1.4666667,Attempted,MYS,22.20762248,,Kiso Maru,
1997-06-30,,80.0167,9.666666667,Hijacked,LKA,1.940376789,,Morang Bong,
1997-06-30,,81.6353,6.5527,Attempted,LKA,11.24225285,,Missen,
1997-07-01,,79.8801,8.9892,Attempted,LKA,1.102277688,,Taraki,
1997-07-02,,107.25,-2.6667,Boarding,IDN,25.5206313,,Leira,
1997-07-02,,118.2333,-7.0166667,Boarding,IDN,121.7230419,,OOCL Accord,
1997-07-07,,106.7,20.85,Boarding,VNM,2.427766472,,Oscar Venture,
1997-07-08,,107.0892,20.9355,Boarding,VNM,1.814719161,,Argonaut,
1997-07-09,,91.7932,22.2166667,Boarding,BGD,2.329971162,,Bunga Kantan,
1997-07-11,,79.8432,6.95,Boarding,LKA,1.450377734,,Bunga Mas Lima,
1997-07-13,,-80.1667,25.76666667,Boarding,USA,3.26583428,,Venderpool Express,
1997-07-13,,121,14.5931667,Boarding,PHL,4.438529578,,Ville D'Aquarius,
1997-07-20,,91.7932,22.2166667,Boarding,BGD,2.329971162,,Eburna,
1997-07-23,,-4,5.2931667,Boarding,CIV,1.268660948,,Kimolos,
1997-07-26,,91.7932,22.2166667,Boarding,BGD,2.329971162,,North Sea,
1997-07-26,,91.7932,22.2166667,Boarding,BGD,2.329971162,,Star Bird,
1997-07-29,,105.1667,-5.4666667,Boarding,IDN,8.927250019,,Aditya Usha,
1997-07-31,,-13.2265,8.5,Boarding,SLE,0.743618453,,Proteus,
1997-07-31,,-13.2265,8.5,Boarding,SLE,0.743618453,,Seaway,
1997-08-08,,-79.9,-2.2666667,Boarding,ECU,3.859231799,,Lircay,
1997-08-08,,100.8667,13.0666667,Boarding,THA,2.922736055,,Alam Tangkas,
1997-08-08,,158.9257,-8.6044,Boarding,SLB,46.8595291,,Pacani III,
1997-08-09,,70.2203,22.8196667,Boarding,IND,10.43106631,,Normar Splendour,
1997-08-10,,100.6067,13.3516667,Boarding,THA,18.45410035,,Oriental Bright,
1997-08-14,,105.1667,-5.4666667,Boarding,IDN,8.927250019,,Esperanza Ace,
1997-08-15,,-79.9,-2.2666667,Boarding,ECU,3.859231799,,Illapel,
1997-08-17,,14.3754,35.9375,Boarding,MLT,3.51475531,,Seagull,
1997-08-20,,100.8667,13.0666667,Boarding,THA,2.922736055,,Aro,
1997-08-21,,-46.2872,-23.9761667,Boarding,BRA,0.5597724632,,Tia Angelica,
1997-08-22,,-80,-3.2666667,Attempted,ECU,2.433140854,,Hectoras,
1997-08-23,,9.6667,4.0431667,Boarding,CMR,1.430647464,,CBMT Express,
1997-08-23,,39.2833,-6.833333333,Boarding,TZA,0.4575872123,,Rejane Delmas,
1997-08-25,,105.1667,-5.4666667,Boarding,IDN,8.927250019,,Chian Mariner,
1997-08-27,,5.7167,5.5,Boarding,NGA,9.600200015,,Rugen,
1997-08-30,,106.875,-6.0886667,Boarding,IDN,4.407541808,,Petrobulk Racer,
1997-09-05,,79.8432,6.95,Boarding,LKA,1.450377734,,CMV Fresena,
1997-09-08,,119.4,5.4666667,Attempted,MYS,18.12243092,,Thor Alice,
1997-09-08,,49.0667,30.4166667,Hijacked,IRN,1.049901031,,Banckert,
1997-09-08,,49.0667,30.4166667,Hijacked,IRN,1.049901031,,Smit Cyclone,
1997-09-09,,81.6353,6.5527,Attempted,LKA,11.24225285,,Cordiality,
1997-09-09,,107.2383,-2.84,Boarding,IDN,12.56857049,,Orion Gas,
1997-09-10,,79.8432,6.95,Boarding,LKA,1.450377734,,Raja Brooke,
1997-09-11,,-13.186,8.4933,Boarding,SLE,0.9818074446,,Napetco I,
1997-09-12,,114.2,22.2666667,Boarding,CHN,2.477473174,,Buxcrown,
1997-09-12,,5.7167,5.5,Attempted,NGA,9.600200015,,Tina Green,
1997-09-13,,107.25,-2.6667,Boarding,IDN,25.5206313,,Dragon Java,
1997-09-14,,-64.6267,10.25,Boarding,VEN,0.5574186848,,Bona Sparrow,
1997-09-14,,105.1667,-5.4666667,Boarding,IDN,8.927250019,,Cape Sable,
1997-09-16,,107.2833,-2.85,Boarding,IDN,7.627795403,,Channel Poterne,
1997-09-17,,80.2932,13.0931667,Attempted,IND,1.630632385,,AL Hasa,
1997-09-21,,79.8432,6.95,Boarding,LKA,1.450377734,,Nuova Lloydiana,
1997-09-21,,-51.1667,-0.05,Boarding,BRA,1.388096353,,Lemmergracht,
1997-09-21,,88.3167,22.5265,Boarding,IND,40.14036806,,Sunny Diamond,
1997-09-22,,106.875,-6.0886667,Boarding,IDN,4.407541808,,Ken Leader,
1997-09-25,,79.8432,6.95,Boarding,LKA,1.450377734,,Maersk Busan,
1997-09-26,,101.1667,12.6666667,Boarding,THA,8.714764499,,Karonga,
1997-09-27,,-79.9,-2.2666667,Boarding,ECU,3.859231799,,Concord,
1997-09-27,,5.7167,5.5,Boarding,NGA,9.600200015,,Fischland,
1997-09-27,,105.95,-6.0166667,Attempted,IDN,2.133135886,,Northern Ice,
1997-09-27,,104.4074,1.3303,Boarding,IDN,14.14407962,,Product Queen,
1997-09-27,,-17.3667,14.6666667,Boarding,SEN,6.539971202,,NorthelyIsland,
1997-09-29,,-80,-3.2666667,Boarding,ECU,2.433140854,,Virginia Universal,
1997-09-29,,101.1667,12.6666667,Boarding,THA,8.714764499,,Trono,
1997-10-01,,105.95,-6.0166667,Attempted,IDN,2.133135886,,Anastassia,
1997-10-01,,106.875,-6.0886667,Boarding,IDN,4.407541808,,Krabi Navee,
1997-10-06,,100.8667,13.0666667,Boarding,THA,2.922736055,,Alligator Pride,
1997-10-06,,-76.8382,17.975,Boarding,JAM,1.265529862,,Ice Stream,
1997-10-11,,114.3333,22.1283,Hijacked,CHN,7.032984771,,Vosa Carrier,
1997-10-18,,121,14.5931667,Boarding,PHL,4.438529578,,Yi He,
1997-10-21,,101.1667,12.6666667,Attempted,THA,8.714764499,,Nand Rati,
1997-10-22,,-43.1667,-22.8933333,Boarding,BRA,0.5391398523,,Zim Montevideo,
1997-10-27,,106.0038,-5.9366667,Boarding,IDN,2.215509751,,Sea Kap,
1997-10-27,,102.3791,7.2131,Hijacked,THA,99.19814171,,Oriental City,
1997-10-28,,104.4333,1.3666667,Boarding,MYS,16.88589514,,Indian Goodwill,
1997-10-28,,104.4074,1.3303,Boarding,IDN,14.14407962,,Maersk Virtue,
1997-10-29,,105.1667,-5.4666667,Boarding,IDN,8.927250019,,Eva Maria,
1997-10-30,,104.6,1.3833333,Boarding,IDN,17.6706962,,Bugaz,
1997-11-03,,103.635,1.1863333,Boarding,SGP,13.45182215,,Prabhu Jivesh,
1997-11-04,,104.5417,1.3666667,Boarding,IDN,16.07116838,,North Sea Bellows,
1997-11-05,,112.3,3.7666667,Boarding,MYS,86.58577076,,Rahah,
1997-11-06,,101.1667,12.6666667,Boarding,THA,8.714764499,,Hanjin Yingkou,
1997-11-08,,42.167,15.05,Attempted,YEM,48.86770777,,Poloflat,
1997-11-08,,5.7167,5.5,Boarding,NGA,9.600200015,,Nadia J,
1997-11-09,,101.2933,12.6266667,Boarding,THA,3.701255188,,Falcon Chemist,
1997-11-12,,105.0167,2.7333333,Attempted,IDN,77.15323014,,Petro Ranger,
1997-11-13,,105.3333,3.0166667,Boarding,IDN,38.75641289,,Michal,
1997-11-14,,96.1667,16.7666667,Attempted,MMR,0.7195038113,,Brilliant Pescadores,
1997-11-18,,136.2091,-8.7763,Hijacked,IDN,162.0122607,,Atlanta 95,
1997-11-19,,106.0038,-5.9366667,Boarding,IDN,2.215509751,,Global Venture,
1997-11-22,,115.9333,21.5833333,Attempted,CHN,125.6959256,,Sea Pioneer,
1997-11-26,,106.27,4.63,Boarding,IDN,139.5563972,,Theresa,
1997-11-27,,73.7833,15.41666667,Boarding,IND,0.9705802325,,Cape Sounion,
1997-11-27,,-76.8382,17.975,Boarding,JAM,1.265529862,,Westminster Bridge,
1997-11-28,,114.3333,22.1283,Hijacked,CHN,7.032984771,,Asian Friendship,
1997-11-29,,118.1167,5.8266667,Attempted,MYS,2.313767863,,Chris - T,
1997-11-29,,106.0038,-5.9366667,Boarding,IDN,2.215509751,,PM Alpha,
1997-11-30,,105.6033,4.4535,Attempted,IDN,141.7438771,,Unspecified,
1997-11-30,,80.8221,9.2711,Boarded,LKA,0.2092277551,,Princess Kash,
1997-11-30,,120.6983,14.4466667,Attempted,PHL,12.06162109,,OOCL Alliance,
1997-12-01,,91.7932,22.2166667,Boarding,BGD,2.329971162,,Champion Trader,
1997-12-01,,101.0667,12.5666667,Boarding,THA,10.60762384,,United Ocean,
1997-12-02,,-64.6267,10.25,Boarding,VEN,0.5574186848,,Bona Spray,
1997-12-06,,114,17,Hijacked,CHN,139.7826857,,Anabas,
1997-12-07,,101.2933,12.6266667,Attempted,THA,3.701255188,,Rangitane,
1997-12-20,,120.7555,14.5226667,Attempted,PHL,14.96707829,,Sky Princess,
1997-12-21,,-79.9,-2.2666667,Attempted,ECU,3.859231799,,Golden Alpha,
1997-12-25,,-4,5.2931667,Boarding,CIV,1.268660948,,Brimnes,
1997-12-31,,106.0038,-5.9366667,Boarding,IDN,2.215509751,,Petrobulk Racer,
1998-01-05,,-80.0867,-2.52,Boarded,ECU,4.446084967,,Torbon Maersk,
1998-01-08,,107.7167,-3.7833333,Attempted,IDN,60.7295965,,China Joy,
1998-01-08,,105.3067,-5.4561667,Attempted,IDN,1.174827798,,Lissom,
1998-01-09,,-46.305,-24.637,Boarded,BRA,67.33122822,,Isomeria,
1998-01-11,,104.4,2.0833333,Boarded,MYS,34.07831081,,Tioman I,
1998-01-19,,78.1868,8.755,Attempted,IND,1.112965559,,Maersk Shetland,
1998-01-21,,105.991,-5.9683333,Boarded,IDN,2.260472949,,Petrobulk Racer,
1998-01-24,,-80.1667,25.76666667,Boarded,USA,3.26583428,,NSS Shandeline,
1998-01-27,,105.9535,-6.0081667,Boarded,IDN,1.1166917,,Meridian Spica,
1998-01-27,,70.2203,23.0243333,Boarded,IND,2.981710221,,Jo Clipper,
1998-01-28,,-13.7093,9.5098333,Boarded,GIN,0.3521903491,,Fu Yang Shan,
1998-01-31,,48.4136,4.9115,Hijacked,SOM,20.83466191,,Alfa BG,
1998-02-02,,121.3333,-6.2333333,Attempted,IDN,87.43193168,,Paris Junior,
1998-02-03,,120.2,17.9666667,Attempted,PHL,24.77091885,,Aspidoforos,
1998-02-08,,74.807,12.9228333,Boarded,IND,6.852764113,,Atoyac,
1998-02-09,,119.385,15.8283333,Attempted,PHL,41.74883211,,Puteri Zamrud,
1998-02-09,,9.4367,0.405,Boarded,GAB,5.583536222,,Socol I,
1998-02-09,,120.05,17.3566667,Attempted,PHL,36.88705295,,RORO Sarawak,
1998-02-10,,91.8267,22.2383333,Boarded,BGD,0.8313376995,,Ras Al Zour,
1998-02-15,,91.3167,21.6,Attempted,BGD,54.82668812,,Gretke Oldendorff,
1998-02-16,,120.6983,14.4466667,Attempted,PHL,12.06162109,,Martravelier,
1998-02-28,,48.4136,4.9115,Hijacked,SOM,20.83466191,,Natasha I,
1998-03-03,,106.8867,-6.0338333,Boarded,IDN,9.348946503,,Xin Hua No.8,
1998-03-04,,116.0723,5.9858333,Boarded,MYS,6.137166188,,Pernas Propane,
1998-03-07,,147.6,-2.4,Boarded,PNG,16.6371882,,Little Swan,
1998-03-09,,91.8267,22.2383333,Boarded,BGD,0.8313376995,,Jan No.51,
1998-03-11,,112.7235,-7.2038333,Boarded,IDN,1.955988514,,Bali Sea,
1998-03-12,,39.2765,-6.8265,Boarded,TZA,0.6087118768,,Jan No.35,
1998-03-12,,108.5796,-6.7197,Boarded,IDN,5.450658794,,Nam Dhien,
1998-03-16,,-51.0422,0.026,Boarded,BRA,5.732528005,,Industrial Explorer,
1998-03-19,,120.9428,14.5211667,Attempted,PHL,3.658996985,,OOCL Alliance,
1998-03-22,,7.098,4.6719,Boarded,NGA,1.115744408,,Sanmar Pageant,
1998-03-22,,48.4136,4.9115,Fired Upon,SOM,20.83466191,,Dhow Al Waleed,
1998-03-26,,106.8867,-6.0338333,Boarded,IDN,9.348946503,,Zhen No.14,
1998-03-28,,-80.0867,-2.52,Boarded,ECU,4.446084967,,Thorkil Maersk,
1998-03-29,,-80.0867,-2.52,Boarded,ECU,4.446084967,,Paraskevi II,
1998-04-01,,29.2204,31.24,Boarded,EGY,40.36267139,,Nemesis,
1998-04-02,,9.4367,0.405,Boarded,GAB,5.583536222,,Ocean Challenger,
1998-04-02,,70.2203,23.0243333,Boarded,IND,2.981710221,,Sanmar Symphony,
1998-04-03,,-43.1913,-22.8765,Boarded,BRA,2.178646678,,Igloo Moon,
1998-04-04,,125.6537,7.105,Hijacked,PHL,0.8898214619,,Virgin Pearl,
1998-04-05,,125.3667,4.9666667,Attempted,PHL,44.29054889,,Shun Kim,
1998-04-06,,105.9922,-5.9531667,Boarded,IDN,3.737279898,,Multitank Calabria,
1998-04-14,,-80.0867,-2.52,Attempted,ECU,4.446084967,,Simone J,
1998-04-15,,51.15,12.085,Attempted,SOM,22.95596275,,Silver Star,
1998-04-16,,104.8333,2,Attempted,MYS,74.32496556,,Northwest Sanderling,
1998-04-17,,105.35,3.8166667,Hijacked,IDN,91.75100597,,Petro Ranger,
1998-04-20,,105.9193,-6.0418333,Boarded,IDN,4.712374625,,Swift Tiger,
1998-04-22,,-17.4247,14.676,Boarded,SEN,0.2610339344,,Arcadia,
1998-04-24,,-52.0757,-32.0536667,Boarded,BRA,1.852696888,,Bretagene,
1998-04-24,,94.5833,6.4333333,Attempted,,85.89186224,,Tiger Wave,
1998-04-24,,91.8267,22.2383333,Boarded,BGD,0.8313376995,,Waid Al Agouz,
1998-04-26,,1.0583,49.4385,Boarded,FRA,41.41974976,,Hellen C,
1998-04-26,,-80.0867,-2.52,Boarded,ECU,4.446084967,,CSAV Rio de la Plata,
1998-04-28,,106.8867,-6.0338333,Boarded,IDN,9.348946503,,Kwangtung,
1998-04-28,,122.5667,6.7166667,Attempted,PHL,28.49957159,,Aqua Stoli,
1998-04-30,,39.645,-4.0483333,Boarded,KEN,2.417621437,,Yin Chuan,
1998-04-30,,112.6667,-7.1383333,Boarded,IDN,0.9227383393,,Calatagan,
1998-05-05,,-51.09,0.0616667,Boarded,BRA,8.153166831,,Auk Arrow,
1998-05-05,,39.645,-4.0483333,Boarded,KEN,2.417621437,,Yin Chuan,
1998-05-06,,48,12.1333333,Attempted,SOM,101.9910233,,Leros Star,
1998-05-07,,125.5833,-4.3166667,Attempted,IDN,102.3979411,,Orchid River,
1998-05-08,,32.55,29.8166667,Boarded,EGY,5.333366015,,Ba Da Ling,
1998-05-08,,106.8867,-6.0338333,Boarded,IDN,9.348946503,,Brigitte,
1998-05-09,,70.2203,23.0243333,Boarded,IND,2.981710221,,Maribel,
1998-05-09,,74.807,12.9228333,Boarded,IND,6.852764113,,World Sky,
1998-05-10,,97.08,8.9083333,Boarded,THA,99.93355514,,Algirdas,
1998-05-11,,118.11,4.1566667,Boarded,MYS,14.3436723,,Shafinaz Ria,
1998-05-11,,112.0667,7.1733333,Boarded,MYS,354.9696136,,Star Trondanger,
1998-05-16,,-74.7583,10.9583333,Boarded,COL,12.75298674,,Renate Schulte,
1998-05-19,,100.7333,12.8,Boarded,THA,14.21316004,,Nickolas,
1998-05-23,,125.6537,7.105,Boarded,PHL,0.8898214619,,Eagle Venus,
1998-05-31,,104.61,-5.5816667,Boarded,IDN,8.843822777,,Chesapeake City,
1998-06-01,,106.8867,-6.0338333,Boarded,IDN,9.348946503,,Ping Shan,
1998-06-02,,50.9333,12.0666667,Attempted,SOM,15.39184535,,Rejane Delmas,
1998-06-04,,118.0555,5.815,Boarded,MYS,0.7614011037,,Sunny Diamond,
1998-06-05,,91.8267,22.2383333,Boarded,BGD,0.8313376995,,Arthur Stove,
1998-06-08,,39.2765,-6.8265,Boarded,TZA,0.6087118768,,MSC Sarah,
1998-06-13,,-74.7583,10.9583333,Boarded,COL,12.75298674,,Spar Emerald,
1998-06-17,,-43.1913,-22.8765,Boarded,BRA,2.178646678,,Zadar,
1998-06-19,,91.8267,22.2383333,Boarded,BGD,0.8313376995,,Britoil 4,
1998-06-23,,3.4539,37.195,Attempted,DZA,42.3382843,,Laurissa,
1998-06-26,,-64.59,10.2428333,Boarded,VEN,1.250774046,,Sea Explorer II,
1998-06-29,,39.645,-4.0483333,Boarded,KEN,2.417621437,,Naval Gent,
1998-06-29,,107.2667,-2.8833333,Boarded,IDN,8.302269876,,Sea Legend,
1998-07-11,,0.007,5.6258333,Boarded,GHA,3.061197502,,Chettinad Tradition,
1998-07-16,,15.0905,37.4908333,Boarded,ITA,0.6789758655,,Island Seaway,
1998-07-17,,91.8267,22.2383333,Attempted,BGD,0.8313376995,,Arktis Crystal,
1998-07-18,,106.8867,-6.0338333,Boarded,IDN,9.348946503,,Express,
1998-07-21,,0.007,5.6258333,Boarded,GHA,3.061197502,,Aschen,
1998-07-25,,118.0555,5.815,Boarded,MYS,0.7614011037,,RCL-A,
1998-08-03,,-4.03,5.1933333,Boarded,CIV,5.691111947,,Shearer,
1998-08-05,,104.1667,1.1166667,Hijacked,IDN,1.697288047,,Fu Tai,
1998-08-05,,-70.03,18.4188333,Boarded,DOM,1.640362846,,Nickolas,
1998-08-10,,-17.4247,14.676,Boarded,SEN,0.2610339344,,Jan-Rasmus,
1998-08-10,,-79.8243,17.9756667,Attempted,JAM,156.7379119,,Moai,
1998-08-12,,9.6667,4.0431667,Boarded,CMR,1.430647464,,Britta,
1998-08-13,,9.6667,4.0431667,Boarded,CMR,1.430647464,,Britta,
1998-08-14,,91.8267,22.2383333,Boarded,BGD,0.8313376995,,Pearl Luck,
1998-08-14,,80.8221,9.2711,Boarded,LKA,0.2092277551,,Jan Zizka,
1998-08-15,,-77.205,-12.1283333,Boarded,PER,1.488871853,,Pactol River,
1998-08-19,,117.5265,-0.1,Attempted,IDN,3.978096129,,British Admiral,
1998-08-19,,103.6667,1.1666667,Attempted,SGP,15.19789655,,Sea Hope,
1998-08-21,,103.4217,1.2216667,Boarded,IDN,10.71024854,,Paola II,
1998-08-23,,-13.7093,9.5098333,Boarded,GIN,0.3521903491,,Sky Bird,
1998-08-24,,-80.0867,-2.52,Boarded,ECU,4.446084967,,CSAV Rungue,
1998-08-27,,-43.1913,-22.8765,Boarded,BRA,2.178646678,,Hope,
1998-09-06,,98.62,4.6866667,Attempted,IDN,47.91534679,,Pacific Splendor,
1998-09-06,,120.7367,14.51,Attempted,PHL,14.96833412,,Spyros,
1998-09-07,,9.6667,4.0431667,Boarded,CMR,1.430647464,,Benguela Stream,
1998-09-08,,118.83,22.08,Hijacked,TWN,158.5691477,,Louisa,
1998-09-09,,-80.0867,-2.52,Boarded,ECU,4.446084967,,Maersk Lima,
1998-09-09,,-58.1875,6.6933333,Boarded,GUY,13.42609074,,Trade Winds,
1998-09-13,,105.325,-5.5166667,Boarded,IDN,5.822425478,,Mercury Star,
1998-09-15,,0.007,5.6258333,Boarded,GHA,3.061197502,,Gili,
1998-09-15,,-79.8243,17.9756667,Boarded,JAM,156.7379119,,Nelvana,
1998-09-18,,89.5858,22.4855,Boarded,BGD,17.07600142,,OTS Uranus,
1998-09-24,,9.6667,4.0431667,Boarded,CMR,1.430647464,,Antwerp Bridge,
1998-09-27,,49.1543,11.3,Hijacked,SOM,5.639620341,,Nourstar,
1998-09-27,,99.4517,3.3695,Hijacked,IDN,0.9715151978,,Tenyu,
1998-09-29,,107.4085,-2.9,Boarded,IDN,3.574832977,,Hanjin Busan,
1998-10-05,,130.7,-8.95,Attempted,IDN,66.64112643,,Prabhu Yuvika,
1998-10-06,,70.2203,23.0243333,Boarded,IND,2.981710221,,Princess Sanee,
1998-10-06,,106.9025,-6.0976667,Boarded,IDN,7.190381219,,Alam Gula,
1998-10-11,,104.2861,3.9604,Boarded,MYS,94.19932274,,Ong Thong,
1998-10-11,,147.16,-9.47,Boarded,PNG,2.478419249,,Ma Foroe,
1998-10-13,,106.9025,-6.0976667,Boarded,IDN,7.190381219,,Asta Samudra,
1998-10-13,,104.61,-5.5816667,Boarded,IDN,8.843822777,,Karimun,
1998-10-15,,-48.519,-25.505,Boarded,BRA,1.200465776,,Oceanic Explorer,
1998-10-20,,80.305,13.1066667,Boarded,IND,0.9518745628,,Bunga Mas Empat,
1998-10-23,,117.5265,-0.1,Boarded,IDN,3.978096129,,Bright Express,
1998-10-26,,107.3,-3,Boarded,IDN,12.89001061,,Chikuma,
1998-10-27,,107.24,-2.92,Boarded,IDN,11.84270288,,Thor Marie,
1998-10-29,,121.0073,13.7418333,Boarded,PHL,3.827580846,,British Resolution,
1998-10-30,,115.2017,20.45,Boarded,CHN,199.7312964,,Singapura Timur,
1998-11-05,,120.9428,14.5211667,Attempted,PHL,3.658996985,,Chang Ni,
1998-11-05,,118.05,20.1166667,Attempted,PHL,319.528258,,Glory Selatan,
1998-11-07,,19.5863,41.8056667,Boarded,ALB,1.298990137,,Ermina,
1998-11-09,,-58.1875,6.6933333,Boarded,GUY,13.42609074,,Rugig,
1998-11-10,,98.1833,4.7333333,Attempted,IDN,22.44060178,,Louisa,
1998-11-11,,143,-1.6,Attempted,PNG,18.82822268,,Cape America,
1998-11-16,,118.8167,22.3333333,Hijacked,TWN,149.6106682,,Cheung Son,
1998-11-25,,99.7631,6.2561,Hijacked,MYS,2.208497138,,Fishing Boat,
1998-11-25,,117.5265,-0.1,Boarded,IDN,3.978096129,,Lady Erika,
1998-11-26,,117.5413,0.5366667,Boarded,IDN,9.599458575,,Star Polaris,
1998-11-27,,39.2765,-6.8265,Boarded,TZA,0.6087118768,,Kyushu Spirit,
1998-11-29,,9.6667,4.0431667,Boarded,CMR,1.430647464,,Maersk Launcher,
1998-11-29,,123.7833,-8.2,Boarded,IDN,1.580532888,,Lambert Maru,
1998-11-29,,105.4067,-5.7033333,Boarded,IDN,9.828805617,,Pernas Amang,
1998-11-30,,117.5413,0.5366667,Hijacked,IDN,9.599458575,,Pulau Mas,
1998-12-02,,117.5265,-0.1,Boarded,IDN,3.978096129,,Brilliance,
1998-12-02,,117.5413,0.5366667,Boarded,IDN,9.599458575,,Tien Shan,
1998-12-06,,116.0855,1.3166667,Boarded,IDN,193.1320714,,Pernas Butane,
1998-12-10,,117.75,0.5333333,Boarded,IDN,9.062101351,,Atlas,
1998-12-11,,117.6,0.1666667,Boarded,IDN,9.663819148,,Mundogas,
1998-12-13,,105.289,-5.4791667,Boarded,IDN,2.813245367,,Bonvoy 8,
1998-12-19,,117.5413,0.5366667,Boarded,IDN,9.599458575,,Docerio,
1998-12-21,,106.8867,-6.0338333,Boarded,IDN,9.348946503,,Leona,
1998-12-24,,115.1836,4.9549,Boarded,MYS,1.758214156,,Fishing Boat,
1998-12-24,,106.9025,-6.0976667,Boarded,IDN,7.190381219,,Zebu Express,
1998-12-27,,49.3212,-2.7803,Boarded,SYC,532.6443699,,CGM Cizanne,
1998-12-28,,107.3167,-3,Attempted,IDN,11.35598786,,Patroclus,
1998-12-28,,106.975,-3.0333333,Boarded,IDN,9.013492355,,Rubin Stella,
1998-12-28,,-43.1913,-22.8765,Boarded,BRA,2.178646678,,Stride,
1998-12-28,,50.0833,12.015,Hijacked,SOM,49.57221637,,Fishing Boat,
1998-12-29,,103.7167,1.0966667,Boarded,IDN,17.00947881,,Abdoun Discovery,
1998-12-30,,117.5265,-0.1,Boarded,IDN,3.978096129,,Nivosa,
1998-12-30,,119.8507,-0.7196667,Boarded,IDN,0.5160248086,,Khairpur Aqor,
1998-12-30,,106.9667,-3.05,Boarded,IDN,8.670989437,,Pacific Star,
1998-12-30,,48.4136,4.9115,Hijacked,SOM,20.83466191,,Sea Johana,
1998-12-30,,105.9535,-6.0081667,Boarded,IDN,1.1166917,,Santa Bahari,
1999-01-01,,91.7932,22.2166667,Boarding,BGD,2.329971162,,Lynx,
1999-01-01,,-79.9,-2.2666667,Boarding,ECU,3.859231799,,Wisida Nordic,
1999-01-03,,48.4136,4.9115,Hijacked,SOM,20.83466191,,Johanna,
1999-01-04,,105.95,-6.0166667,Boarding,IDN,2.133135886,,Santa Bahari,
1999-01-05,,103.06,6.9833333,Attempted,MYS,119.6854805,,Sinar Lombok,
1999-01-07,,-7.6167,33.6,Boarding,MAR,1.039577567,,Anna Theresa,
1999-01-09,,104.035,1.2433333,Attempted,IDN,6.146972404,,Presnya,
1999-01-11,,103.7883,1.15,Boarding,SGP,12.77976812,,Petro Concord,
1999-01-12,,103.75,1.1166667,Boarding,IDN,15.60093514,,Jurong Begonia,
1999-01-13,,103.5,1.05,Boarding,IDN,7.542758432,,Shoryu Emmy,
1999-01-14,,5,5.5,Boarding,NGA,20.0486878,,Baco Liner 3,
1999-01-15,,9.6667,4.0431667,Boarding,CMR,1.430647464,,Britta,
1999-01-15,,103.9502,1.3086,Boarding,SGP,1.147924969,,Cumbrian Express,
1999-01-15,,105.4133,-5.7083333,Boarding,IDN,9.508996676,,Vira Bhum,
1999-01-16,,9.9265,44.3931667,Boarding,ITA,32.28437956,,Nordana Benefactor,
1999-01-16,,-43.1667,-22.8933333,Boarding,BRA,0.5391398523,,Millenium Condor,
1999-01-16,,103.6983,1.08,Boarding,IDN,17.81320113,,Chaumont,
1999-01-18,,103.695,1.06,Boarding,IDN,17.20962761,,Akmala,
1999-01-23,,-4,5.2931667,Boarding,CIV,1.268660948,,Tn Diamond,
1999-01-26,,104.4217,1.3566667,Boarding,MYS,15.76611717,,Nanshin,
1999-01-26,,106.983,-2.967,Boarding,IDN,7.689629245,,Falcon,
1999-01-29,,3.3767,6.45,Boarding,NGA,0.745848921,,Izmaylovo,
1999-01-31,,118.0833,-3.4166667,Attempted,IDN,83.28759596,,Energy Pegasus,
1999-01-31,,39.3533,-6.775,Boarding,TZA,5.977859498,,Lowlwat Qatar,
1999-02-06,,113.0667,3.2666667,Boarding,MYS,1.394944766,,Beluga,
1999-02-14,,106.7,20.85,Boarding,VNM,2.427766472,,Eglantine,
1999-02-15,,117.5767,8.1333333,Boarding,PHL,25.73901723,,Thor Sea,
1999-02-16,,117.15,-0.5265,Boarding,IDN,32.43935797,,Apollo Delapan,
1999-02-21,,-44.0265,-23.0166667,Boarding,BRA,4.428321196,,Tiangshenghai,
1999-02-22,,39.3533,-6.775,Boarding,TZA,5.977859498,,George,
1999-02-22,,-13.7167,9.5166667,Boarding,GIN,0.6667148247,,Flint,
1999-02-22,,-44.0265,-23.0166667,Boarding,BRA,4.428321196,,Cape Iris,
1999-02-24,,103.8689,1.2294,Boarding,SGP,5.130206239,,Andhika Adinugraha,
1999-02-26,,98.6767,3.7766667,Boarding,IDN,4.815190419,,Stolt Efficiency,
1999-02-26,,107.31,-3.0333333,Attempted,IDN,14.38145653,,Ya Samadu,
1999-03-02,,112.7467,-7.1885,Boarding,IDN,1.852101831,,Alaska Rainbow,
1999-03-02,,100.6167,13.3333333,Boarding,THA,20.62658823,,Kimanis,
1999-03-02,,-76.8382,17.975,Boarding,JAM,1.265529862,,Brage Atlantic,
1999-03-02,,114.7717,22.3033333,Attempted,CHN,27.95446322,,Chu Xiang,
1999-03-03,,100.825,13.138,Boarding,THA,7.253749182,,Destiny,
1999-03-08,,117.15,-0.5265,Boarding,IDN,32.43935797,,Southern Venture,
1999-03-08,,13.25,-8.8,Boarding,AGO,0.5092156691,,Fortunato,
1999-03-09,,91.7932,22.2166667,Boarding,BGD,2.329971162,,Seabulk Command,
1999-03-10,,-17.3667,14.6666667,Boarding,SEN,6.539971202,,Carola,
1999-03-10,,-48.5167,-25.5,Boarding,BRA,1.800375972,,Maratha Mission,
1999-03-12,,-77.1667,-12.5,Boarding,PER,34.41965362,,Spring Delight,
1999-03-12,,104,1.2366667,Boarding,IDN,6.398410105,,Fiona,
1999-03-12,,117.29,-2.0666667,Boarding,IDN,77.43126031,,Maersk Teluk,
1999-03-14,,50.6583,8.325,Boarding,SOM,43.83419956,,Salwah,
1999-03-15,,105.1417,-6.44,Attempted,IDN,12.978135,,Fortune,
1999-03-16,,-64.5932,10.1166667,Boarding,VEN,11.29660972,,Cielo Del Venezuela,
1999-03-16,,50.2,7.6333333,Attempted,SOM,43.59525873,,World Kinship,
1999-03-17,,97.1667,9.1666667,Hijacked,THA,78.31167325,,Marine Master,
1999-03-21,,106.975,-3,Boarding,IDN,8.537360721,,Batu Licin,
1999-03-21,,117.15,-0.5265,Boarding,IDN,32.43935797,,Ivory Bay,
1999-03-21,,103.9502,1.3086,Boarding,SGP,1.147924969,,Pacific Venture,
1999-03-26,,105.1667,-5.5,Boarding,IDN,8.576883017,,Mihalis P,
1999-03-26,,117.2833,-1,Boarding,IDN,9.92311808,,Luna Azul,
1999-03-27,,105.1667,-5.5,Boarding,IDN,8.576883017,,Mihalis P,
1999-03-28,,-4,5.2931667,Boarding,CIV,1.268660948,,Horestrand,
1999-03-28,,48.4136,4.9115,Attempted,SOM,20.83466191,,Paraskevi,
1999-03-28,,107.5494,-2.7803,Boarding,IDN,5.030786362,,Mihalis P,
1999-03-28,,5.75,5.9166667,Boarding,NGA,42.84203775,,Fione,
1999-03-29,,105.15,-2.1916667,Boarding,IDN,12.34965983,,Rahah,
1999-04-01,,121.8423,7.0216667,Attempted,PHL,7.388889097,,Anna Oldendorff,
1999-04-02,,1.0833,5.6,Boarding,GHA,25.47538225,,P & O Nedlloyd Lagos,
1999-04-04,,-13.7167,9.5166667,Boarding,GIN,0.6667148247,,SAAD III,
1999-04-05,,53.6,9.1666667,Attempted,SOM,277.2529575,,Silver Fish,
1999-04-07,,79.8432,6.95,Boarding,LKA,1.450377734,,Norasia Shanghai,
1999-04-08,,7.2267,5.0016667,Attempted,NGA,31.94602534,,Melrose,
1999-04-09,,12.225,-6.0583333,Boarding,AGO,8.346190972,,Orionas,
1999-04-10,,104.16,1.2616667,Attempted,IDN,9.586126801,,Gerdt Oldendorff,
1999-04-11,,49.91,7.3133333,Attempted,SOM,31.55358418,,Karin S,
1999-04-11,,47.95,12.65,Attempted,YEM,126.2432625,,Spic Pearl,
1999-04-11,,104.15,1.2666667,Attempted,MYS,9.406763193,,Gas Al Ahmadi,
1999-04-14,,101.45,1.6766667,Boarding,IDN,4.422683577,,Sinfa,
1999-04-16,,113.0667,3.2666667,Boarding,MYS,1.394944766,,Puteri Fiirus,
1999-04-20,,-79.9,-2.2666667,Boarding,ECU,3.859231799,,Crowley Americas,
1999-04-20,,113.0667,3.2666667,Boarding,MYS,1.394944766,,Aman Bintulu,
1999-04-20,,113.0667,3.2666667,Boarding,MYS,1.394944766,,Chem Unity,
1999-04-20,,12.2697,-6.1053333,Attempted,AGO,1.200379715,,Aubisque,
1999-04-22,,79.8432,6.95,Boarding,LKA,1.450377734,,Zim Dalian,
1999-04-23,,100.3432,5.4166667,Boarding,MYS,0.1095903481,,MCC Vantage,
1999-04-26,,106.9667,-2.9333333,Boarding,IDN,5.994793645,,Rathrowan,
1999-04-26,,100.825,13.138,Boarding,THA,7.253749182,,Monterrey,
1999-04-27,,113.0667,3.2666667,Boarding,MYS,1.394944766,,Jasmine Ace,
1999-04-27,,113.0667,3.2666667,Boarding,MYS,1.394944766,,Cosmic Challenger,
1999-04-27,,117.2833,-1,Boarding,IDN,9.92311808,,Atlas,
1999-04-28,,105.7564,-2.508,Boarding,IDN,14.85344994,,Sidrela,
1999-04-28,,117.6403,0.5366667,Boarding,IDN,4.426869204,,Peoria,
1999-04-29,,109.6317,-5.3666667,Attempted,IDN,102.0936168,,Sidrela,
1999-04-30,,115.9833,-4.0333333,Boarding,IDN,7.563262619,,Eastern Queen,
1999-05-01,,105.6583,-2.4,Attempted,IDN,3.306089587,,Pac Bali,
1999-05-02,,-64.5932,10.1166667,Boarding,VEN,11.29660972,,Zim Venezuela III,
1999-05-04,,117.538,0.0248333,Attempted,IDN,2.551015665,,Sunny Ocean,
1999-05-04,,119.9333,-0.7833333,Attempted,IDN,7.378572365,,Oriental Gas,
1999-05-09,,75.5352,10.415,Boarding,IND,54.42988952,,Beta I,
1999-05-12,,106.7,20.85,Boarding,VNM,2.427766472,,Asian Friendship,
1999-05-13,,91.7932,22.2166667,Boarding,BGD,2.329971162,,Agios Gerassimos,
1999-05-16,,116.7932,-1.25,Boarding,IDN,0.2776971814,,Pacific Venture,
1999-05-19,,121,14.5931667,Boarding,PHL,4.438529578,,Alcestis,
1999-05-19,,106.875,-6.0886667,Boarding,IDN,4.407541808,,Arisbe,
1999-05-20,,98.6767,3.7766667,Boarding,IDN,4.815190419,,Gloria 1,
1999-05-24,,108.9833,2.8666667,Attempted,IDN,10.67508624,,Jet Tanker,
1999-05-24,,117.6403,0.5366667,Boarding,IDN,4.426869204,,Tien Shan,
1999-05-24,,106.1833,-2.95,Attempted,IDN,13.80889061,,Pac Bali,
1999-05-26,,103.4167,1.25,Attempted,MYS,9.682467777,,Petro Foremost,
1999-05-27,,107.2883,-2.83,Boarding,IDN,8.350210952,,Sinar Toba,
1999-05-28,,98.78,3.9366667,Boarding,IDN,11.15596952,,Quixada,
1999-05-30,,-86.9,20.48333333,Boarding,MEX,7.546337684,,Mexico I,
1999-05-31,,91.7932,22.2166667,Boarding,BGD,2.329971162,,Al Badiyah,
1999-05-31,,118.1167,5.8266667,Boarding,MYS,2.313767863,,Dorthe Oldendorff,
1999-06-01,,-46.2872,-23.9761667,Boarding,BRA,0.5597724632,,Jork,
1999-06-05,,116.0667,5.9765,,MYS,5.070460616,,Galaxy I,
1999-06-05,,116.0667,5.9765,,MYS,5.070460616,,Galaxy II,
1999-06-08,,104.28,2.8012,Hijacked,MYS,6.604322268,,Siam Xan Xai,
1999-06-11,,-0.0167,5.6166667,Boarding,GHA,3.55227592,,Maya,
1999-06-16,,-4,5.2931667,Boarding,CIV,1.268660948,,Nordisle,
1999-06-23,,121,14.5931667,Boarding,PHL,4.438529578,,Karen Sackfield,
1999-07-01,,9.5,0.2765,Boarding,GAB,1.613570292,,Great Happy,
1999-07-02,,-70,18.4166667,Boarding,DOM,0.4336173895,,Kimolian Pride,
1999-07-07,,-77.0667,3.8766667,Boarding,COL,1.008899726,,Pandora P.,
1999-07-11,,5,5.5,Attempted,NGA,20.0486878,,Vega,
1999-07-13,,91.7932,22.2166667,Boarding,BGD,2.329971162,,Alert,
1999-07-13,,117.15,-0.5265,Boarding,IDN,32.43935797,,Princess Seiko,
1999-07-14,,91.7932,22.2166667,Boarding,BGD,2.329971162,,Karin Cat,
1999-07-16,,98.6767,3.7766667,Boarding,IDN,4.815190419,,Rose,
1999-07-18,,116.66,-1.6916667,Boarding,IDN,14.81403847,,Magnus Stove,
1999-07-20,,3.3767,6.45,Boarding,NGA,0.745848921,,Kilchem Oceanis,
1999-07-20,,121,14.5931667,Boarding,PHL,4.438529578,,Amer Deep,
1999-07-20,,98.7667,3.9166667,Boarding,IDN,8.680806559,,Bunga Melati Dua,
1999-07-20,,39.3533,-6.775,Boarding,TZA,5.977859498,,MSC Marina,
1999-07-23,,9.6667,4.0431667,Boarding,CMR,1.430647464,,Sea Lion,
1999-07-24,,98.6767,3.7766667,Boarding,IDN,4.815190419,,MCC Vantage,
1999-07-24,,104.1667,-0.7166667,Boarding,IDN,21.96118035,,Enam Enam Kadepe,
1999-07-25,,81.2265,8.5666667,Boarding,LKA,0.5783431467,,Newco Endurance,
1999-07-28,,107.25,-2.6667,Boarding,IDN,25.5206313,,Ginger,
1999-07-29,,106.875,-6.0886667,Boarding,IDN,4.407541808,,Uni-Obtain,
1999-07-30,,116.7932,-1.25,Boarding,IDN,0.2776971814,,SC Horizon,
1999-08-02,,76.25,9.9666667,Boarding,IND,0.4242580595,,Alim,
1999-08-06,,98.6767,3.7766667,Boarding,IDN,4.815190419,,Ayia Markella,
1999-08-06,,-52.0757,-32.0536667,Boarding,BRA,1.852696888,,Emilia Theresa,
1999-08-08,,98.7543,3.9133333,Boarding,IDN,7.327689516,,Indian Goodwill,
1999-08-08,,-64.5932,10.1166667,Boarding,VEN,11.29660972,,Nordana Advisor,
1999-08-09,,106.0038,-5.9366667,Boarding,IDN,2.215509751,,Golden Asia,
1999-08-09,,159.9509,-9.386,Boarding,SLB,5.328321984,,Wunschtraum,
1999-08-10,,116.6333,-1.7,Boarding,IDN,13.36973034,,Full Rich,
1999-08-15,,117.15,-0.5265,Boarding,IDN,32.43935797,,Largo,
1999-08-16,,117.555,-0.2333333,Boarding,IDN,11.40035566,,Rosewood,
1999-08-18,,50.3167,29.2265,Boarding,IRN,1.568423595,,Jahre Venture,
1999-08-19,,108.7367,-5.77,Boarding,IDN,67.17426804,,Jakarta Star I,
1999-08-19,,-76.8382,17.975,Boarding,JAM,1.265529862,,Cap Ortegal,
1999-08-23,,117.15,-0.5265,Boarding,IDN,32.43935797,,Lucky,
1999-08-23,,103.4167,1.35,Attempted,MYS,3.451560619,,Porthos,
1999-08-27,,119.4333,18.6333333,Attempted,PHL,120.1257614,,Pacific Harmony,
1999-08-28,,105.1667,-5.5,Boarding,IDN,8.576883017,,Rubin Peony,
1999-08-30,,116.7932,-1.25,Attempted,IDN,0.2776971814,,Pacific Bravery,
1999-09-01,,98.6767,3.7766667,Boarding,IDN,4.815190419,,Beatrice,
1999-09-02,,100.825,13.138,Attempted,THA,7.253749182,,Skautopp,
1999-09-04,,106.4083,1.2916667,Boarding,IDN,128.3398576,,Vekua,
1999-09-06,,12.2765,44.4765,Boarding,ITA,1.361666615,,Lady Greta,
1999-09-08,,-13.7167,9.5166667,Boarding,GIN,0.6667148247,,Pink Sands,
1999-09-09,,106.875,-6.0886667,Boarding,IDN,4.407541808,,Spiros,
1999-09-11,,-70,18.4166667,Boarding,DOM,0.4336173895,,Hamilton,
1999-09-11,,48.4136,4.9115,Boarding,SOM,20.83466191,,Correlation,
1999-09-13,,91.7183,22.2233333,Boarding,BGD,6.857887949,,Dignity,
1999-09-16,,113.14,-5.5666667,Attempted,IDN,49.73130601,,Sincere Success,
1999-09-16,,105.95,-5.9166667,Boarding,IDN,5.232650631,,Alam Aman,
1999-09-16,,106.9667,-2.8333333,Boarding,IDN,7.631102086,,Maersk Atlantic,
1999-09-16,,116.2267,-3.2316667,Boarding,IDN,1.558375723,,Oriental Pride,
1999-09-17,,91.7932,22.2166667,Boarding,BGD,2.329971162,,Duke,
1999-09-19,,80.2932,13.0931667,Boarding,IND,1.630632385,,Gem of Vizag,
1999-09-19,,48.4136,4.9115,,SOM,20.83466191,,Sadyba,
1999-09-21,,-13.7167,9.5166667,Attempted,GIN,0.6667148247,,Unterwalden,
1999-09-22,,106.875,-6.0886667,Attempted,IDN,4.407541808,,Marylaki,
1999-09-22,,91.7932,22.2166667,Boarding,BGD,2.329971162,,Joy World,
1999-09-25,,56.472,26.5945,Attempted,OMN,25.24432513,,Aspidoforos,
1999-09-25,,81.6387,9.2745,Attempted,LKA,76.08889156,,Yu Jia,
1999-09-25,,104.5933,-5.5265,Boarding,IDN,3.087662547,,Chesapeake City,
1999-09-26,,116.7932,-1.25,Boarding,IDN,0.2776971814,,Green Valley,
1999-09-30,,-77.0667,3.8766667,Boarding,COL,1.008899726,,P & O Nedlloyd Chile,
1999-10-02,,91.7932,22.2166667,Boarding,BGD,2.329971162,,Mira,
1999-10-03,,117.15,-0.5265,Boarding,IDN,32.43935797,,Topaz,
1999-10-04,,29.8267,31.1666667,Boarding,EGY,1.78247479,,Alwine Oldendorff,
1999-10-07,,106.875,-6.0886667,Boarding,IDN,4.407541808,,Crystal Bulker,
1999-10-10,,79.8432,6.95,Boarding,LKA,1.450377734,,OOCL Honour,
1999-10-10,,122.4752,13.5758333,Attempted,PHL,7.292872114,,Yukatan,
1999-10-12,,101.4669,2.7,Attempted,MYS,2.354343391,,Isocardia,
1999-10-12,,98.6767,3.7766667,Boarding,IDN,4.815190419,,Tinker Bell,
1999-10-12,,117.15,-0.5265,Attempted,IDN,32.43935797,,Nanyo,
1999-10-13,,4.7561,4.0699,Hijacked,NGA,112.1617734,,Unicorn 1,
1999-10-17,,98.6767,3.7766667,Boarding,IDN,4.815190419,,Lake George,
1999-10-17,,98.6767,3.7766667,Boarding,IDN,4.815190419,,L. Star,
1999-10-18,,91.7932,22.2166667,Boarding,BGD,2.329971162,,Broadgate,
1999-10-18,,80.2932,13.0931667,Boarding,IND,1.630632385,,Actuaria,
1999-10-19,,91.7932,22.2166667,Boarding,BGD,2.329971162,,Koo Yong,
1999-10-20,,106.875,-6.0886667,Boarding,IDN,4.407541808,,Bunga Mas Tiga,
1999-10-20,,-72.3432,18.55,Boarding,HTI,0.4358399826,,Hudson Gracht,
1999-10-20,,106.875,-6.0886667,Boarding,IDN,4.407541808,,Olympic Galaxy,
1999-10-21,,104.0517,1.1245,,IDN,3.185194005,,Intermac 401,
1999-10-22,,99.4667,3.366666667,Hijacked,IDN,1.558106286,,Alondra Rainbow,
1999-10-23,,98.6767,3.7766667,Boarding,IDN,4.815190419,,Chembulk Trader,
1999-10-24,,-0.9516,4.6567,Attempted,GHA,57.72601026,,Algarrobo,
1999-10-24,,100.3432,5.4166667,Boarding,MYS,0.1095903481,,Jaru Bhum,
1999-10-25,,107.25,-2.6667,Boarding,IDN,25.5206313,,Zeno,
1999-10-25,,98.6767,3.7766667,Boarding,IDN,4.815190419,,Marine Express,
1999-10-27,,70.2203,22.8196667,Attempted,IND,10.43106631,,Chandidas,
1999-10-27,,91.7932,22.2166667,Boarding,BGD,2.329971162,,Vachnadze,
1999-10-27,,49.3212,-2.7803,Boarding,SYC,532.6443699,,Assets Energy,
1999-10-27,,-4,5.2931667,Boarding,CIV,1.268660948,,Yria,
1999-10-28,,107.2833,-2.95,Attempted,IDN,9.503515017,,Eastern Highway,
1999-10-28,,107.2833,-2.9666667,Boarding,IDN,10.92921687,,Sinar Sumba,
1999-10-28,,106.983,-2.967,Boarding,IDN,7.689629245,,Performance - 9,
1999-10-30,,91.7932,22.2166667,Boarding,BGD,2.329971162,,Dea Champion,
1999-10-30,,100.2092,5.4635,Boarding,MYS,1.506630491,,Apollo,
1999-10-30,,118,-2,Boarding,IDN,113.536393,,Ramform Challenger,
1999-10-31,,76.25,9.9666667,Boarding,IND,0.4242580595,,St. Irene,
1999-11-01,,102.5,1.7533333,Attempted,MYS,24.95006657,,Alam Selar,
1999-11-03,,105.1667,-5.4666667,Boarding,IDN,8.927250019,,Levin,
1999-11-04,,107.2833,-2.9166667,Attempted,IDN,7.241123039,,Sinar Sumba,
1999-11-07,,7.2267,5.0016667,Boarding,NGA,31.94602534,,Sanmar Pavilion,
1999-11-08,,112.7467,-7.1885,Boarding,IDN,1.852101831,,Nil,
1999-11-09,,102.0548,2.047,Attempted,MYS,23.61647886,,Binhai 252,
1999-11-09,,91.7932,22.2166667,Boarding,BGD,2.329971162,,Sun Breeze Master,
1999-11-10,,103.7,0.7,Boarding,IDN,7.063001783,,Sun Ray,
1999-11-10,,107.3167,-3.0166667,Boarding,IDN,12.5478753,,Asean Chemistry,
1999-11-11,,48.4136,4.9115,Attempted,SOM,20.83466191,,Aphrodite III,
1999-11-11,,118.1167,5.8266667,Boarding,MYS,2.313767863,,Bunga Melati Satu,
1999-11-11,,49.3212,-2.7803,Boarding,SYC,532.6443699,,Sinar Sumba,
1999-11-13,,100.3432,5.4166667,Boarding,MYS,0.1095903481,,Artemis,
1999-11-13,,70.2203,22.8196667,Boarding,IND,10.43106631,,Crane North,
1999-11-13,,112.7467,-7.1885,Boarding,IDN,1.852101831,,Uni-Modest,
1999-11-14,,80.2932,13.0931667,Attempted,IND,1.630632385,,Jurong,
1999-11-15,,102.8333,1.8333333,Attempted,MYS,1.3860617,,APL Japan,
1999-11-17,,98.6767,3.7766667,Boarding,IDN,4.815190419,,Bunga Melati Satu,
1999-11-17,,106.875,-6.0886667,Attempted,IDN,4.407541808,,Bunga Mas Tiga,
1999-11-17,,121,14.5931667,Boarding,PHL,4.438529578,,Triada,
1999-11-19,,41.8833,15.5333333,Boarding,YEM,74.15036693,,Leopard Star,
1999-11-20,,96.1667,16.7666667,Boarding,MMR,0.7195038113,,Bravo,
1999-11-22,,48.4136,4.9115,Attempted,SOM,20.83466191,,Airflow,
1999-11-22,,107.25,-2.6667,Attempted,IDN,25.5206313,,Claret,
1999-11-23,,53.8958,29.8115,Attempted,IRN,279.2807953,,Orient Patrior,
1999-11-23,,106.875,-6.0886667,Boarding,IDN,4.407541808,,Apman II,
1999-11-26,,107.25,-2.6667,Boarding,IDN,25.5206313,,Erowati,
1999-11-26,,106.9667,-2.9833333,Boarding,IDN,6.706273952,,Belicia,
1999-11-27,,106.983,-2.967,Attempted,IDN,7.689629245,,Thor Kirsten,
1999-11-29,,106.9667,-2.8833333,Boarding,IDN,5.611416647,,Pac Bali,
1999-11-29,,102.5833,1.7333333,Boarding,MYS,19.00789092,,Victoria L,
1999-11-30,,76.25,9.9666667,Attempted,IND,0.4242580595,,Norbulk Pine,
1999-11-30,,107.25,-2.6667,Boarding,IDN,25.5206313,,Alliance Spirit,
1999-12-01,,91.7932,22.2166667,Boarding,BGD,2.329971162,,Sea Bird,
1999-12-01,,107.25,-2.6667,Boarding,IDN,25.5206313,,Bali Sea,
1999-12-02,,91.7932,22.2166667,Boarding,BGD,2.329971162,,Sea Bird,
1999-12-02,,107.25,-2.6667,Attempted,IDN,25.5206313,,Ruby Indah,
1999-12-02,,106.875,-6.0886667,Attempted,IDN,4.407541808,,Erkan Mete,
1999-12-03,,109.1333,-1.7,Boarding,IDN,21.51066793,,Dragon Tekong,
1999-12-03,,91.7932,22.2166667,Boarding,BGD,2.329971162,,Bunga Mas Lapan,
1999-12-03,,107.25,-2.6667,Boarding,IDN,25.5206313,,Vincita,
1999-12-04,,106.0038,-5.9366667,Boarding,IDN,2.215509751,,Norgas Energy,
1999-12-05,,91.7932,22.2166667,Boarding,BGD,2.329971162,,Pacific Centurion,
1999-12-05,,9.5,0.2765,Boarding,GAB,1.613570292,,Baltic Bulker,
1999-12-06,,79.8432,6.95,Boarding,LKA,1.450377734,,Sagar,
1999-12-06,,91.7932,22.2166667,Boarding,BGD,2.329971162,,J. Captain Trader,
1999-12-06,,91.7932,22.2166667,Boarding,BGD,2.329971162,,X-Press Makalu,
1999-12-07,,-13.7167,9.5166667,Attempted,GIN,0.6667148247,,Louise,
1999-12-09,,118.1167,5.8266667,Boarding,MYS,2.313767863,,Shenton,
1999-12-10,,76.25,9.9666667,Boarding,IND,0.4242580595,,Norbulk Pine,
1999-12-13,,105.1667,-5.4666667,Boarding,IDN,8.927250019,,Kariba,
1999-12-15,,98.6767,3.7766667,Attempted,IDN,4.815190419,,Iver Spendor,
1999-12-15,,98.6767,3.7766667,Boarding,IDN,4.815190419,,Penang Glory,
1999-12-16,,91.7932,22.2166667,Boarding,BGD,2.329971162,,Saigon 1,
1999-12-17,,-4,5.2931667,Boarding,CIV,1.268660948,,Pioneer Spirit,
1999-12-17,,91.7932,22.2166667,Boarding,BGD,2.329971162,,Performance 9,
1999-12-18,,70.2203,22.8196667,Boarding,IND,10.43106631,,Med Riva,
1999-12-21,,88.3167,22.5265,Boarding,IND,40.14036806,,Tiger Cliff,
1999-12-22,,78.2932,8.75,Attempted,IND,8.752943458,,Ariel,
1999-12-22,,88.0717,21.8783333,Boarding,IND,0.5280408259,,Top Wisdom,
1999-12-22,,78.2932,8.75,Boarding,IND,8.752943458,,Bugovo,
1999-12-25,,9.5,0.2765,Boarding,GAB,1.613570292,,Great Calm,
1999-12-26,,118.1167,5.8266667,Attempted,MYS,2.313767863,,Kariba,
1999-12-26,,117.15,-0.5265,Boarding,IDN,32.43935797,,Pacstar,
1999-12-26,,91.7932,22.2166667,Boarding,BGD,2.329971162,,Sheng Yang,
2000-01-02,,79.8517,6.9583333,Boarded,LKA,0.5753896997,,Sinar Java,
2000-01-04,,106.78,-6.1049,Boarded,IDN,1.466418476,,Gemini,
2000-01-05,,116.75,-1.4431667,Boarded,IDN,7.701803937,,Naga,
2000-01-05,,-80.0867,-2.52,Boarded,ECU,4.446084967,,Arctic Dawn,
2000-01-05,,102.55,1.7333333,Boarded,MYS,21.69668693,,Ocean Winner,
2000-01-07,,106.9025,-6.0976667,Boarded,IDN,7.190381219,,Paris,
2000-01-08,,102.6833,8.1666667,Attempted,THA,192.1233233,,Julie Tide,
2000-01-10,,102.6,1.7166667,Attempted,MYS,19.27548609,,Carnation,
2000-01-12,,102.4667,1.8583333,Boarded,MYS,19.93229048,,Aqi,
2000-01-12,,100.825,13.138,Attempted,THA,7.253749182,,Noble Star,
2000-01-12,,99.2682,4.9173,Attempted,MYS,108.5007795,,Saturn II,
2000-01-16,,91.7,6.1166667,Boarded,,237.2684519,,Hadiyah,
2000-01-16,,99.2682,4.9173,Boarded,MYS,108.5007795,,Bandung Ace,
2000-01-16,,99.2682,4.9173,Boarded,MYS,108.5007795,,Ibnu,
2000-01-17,,-44.0333,-23.0061667,Boarded,BRA,3.862582586,,Nasia,
2000-01-17,,116.2192,-3.2368333,Boarded,IDN,1.468387448,,Ocean Ellie,
2000-01-17,,102.525,1.7283333,Boarded,MYS,24.22153571,,Malayan Princess,
2000-01-17,,99.2682,4.9173,Attempted,MYS,108.5007795,,Mussandam,
2000-01-20,,99.2682,4.9173,Boarded,MYS,108.5007795,,Hanjin Bremen,
2000-01-20,,106.9025,-6.0976667,Boarded,IDN,7.190381219,,Tanlong,
2000-01-21,,99.2682,4.9173,Attempted,MYS,108.5007795,,Valiant,
2000-01-22,,89.5858,22.4855,Boarded,BGD,17.07600142,,Ariel,
2000-01-22,,39.645,-4.0483333,Boarded,KEN,2.417621437,,Equity,
2000-01-22,,6.3144,4.6704,Attempted,NGA,20.66202968,,Seabulk Lincoln 6,
2000-01-22,,-4,5.2931667,Boarded,CIV,1.268660948,,Arktis Mariner,
2000-01-23,,-50.1683,-0.0566667,Boarded,BRA,9.530253762,,Sun Suma,
2000-01-23,,32.55,29.8166667,Boarded,EGY,5.333366015,,Contship,
2000-01-25,,91.8267,22.2383333,Boarded,BGD,0.8313376995,,Dai Hung,
2000-01-26,,6.3144,4.6704,Boarded,NGA,20.66202968,,Smit Lloyd,
2000-01-26,,101.4547,1.6855,Boarded,IDN,4.051521376,,Ding An,
2000-01-26,,5.9333,4.05,Boarded,NGA,30.26807413,,Red Martin I,
2000-01-27,,48.4136,4.9115,Boarded,SOM,20.83466191,,Gone Troppo,
2000-01-27,,91.8267,22.2383333,Boarded,BGD,0.8313376995,,Gur Maiden,
2000-01-28,,98.6767,3.7766667,Attempted,IDN,4.815190419,,Seaglory,
2000-01-30,,5.0833,5.4666667,Attempted,NGA,13.28051821,,Swift,
2000-01-31,,103.5,1.2166667,Attempted,MYS,6.220157299,,Courageventure,
2000-01-31,,116.8,-1.6833333,Attempted,IDN,28.3029701,,Maritime Wisdom,
2000-02-01,,98.7007,3.7836667,Attempted,IDN,2.482068608,,Amalfi,
2000-02-02,,89.5858,22.4855,Boarded,BGD,17.07600142,,Apj Anand,
2000-02-04,,99.2682,4.9173,Attempted,MYS,108.5007795,,Hang Ta,
2000-02-05,,70.2203,23.0243333,Boarded,IND,2.981710221,,ASEAN Success,
2000-02-06,,95.08,11.66,Hijacked,,147.7299613,,Pilin 21,
2000-02-07,,89.5858,22.4855,Attempted,BGD,17.07600142,,Kapitan Ivanchuk,
2000-02-09,,98.7007,3.7836667,Boarded,IDN,2.482068608,,Artemis,
2000-02-11,,3.3867,6.4416667,Boarded,NGA,0.3713438466,,Dubai Pride,
2000-02-13,,98.7007,3.7836667,Boarded,IDN,2.482068608,,Miyuki,
2000-02-13,,159.973,-9.3891667,Boarded,SLB,5.20353357,,Capitan Fearn,
2000-02-17,,106.9025,-6.0976667,Boarded,IDN,7.190381219,,Mariner,
2000-02-18,,106.8867,-6.0338333,Boarded,IDN,9.348946503,,Kurushima Sea,
2000-02-19,,117.1383,-0.5401667,Boarded,IDN,33.74762115,,Flora,
2000-02-22,,70.2203,23.0243333,Boarded,IND,2.981710221,,O Violet,
2000-02-23,,106.8867,-6.0338333,Boarded,IDN,9.348946503,,Changsha,
2000-02-23,,97.4,7.5333333,Hijacked,THA,101.9113063,,Global Mars,
2000-02-23,,107.0687,23.0656667,Boarded,VNM,185.6413749,,Orchid,
2000-02-24,,13.4518,-5.8316667,Boarded,COD,29.74430087,,Holy Island,
2000-02-25,,114.1558,22.3193333,Boarded,CHN,0.5009985637,,Kota Wangsa,
2000-02-25,,123.8937,8.1134,Explosion,PHL,0.9287453915,,Our Lady of Mediatrix,
2000-02-25,,116.2765,-3.2061667,Boarded,IDN,1.701028876,,Eastern Power,
2000-02-28,,13.2883,-8.6283333,Boarded,AGO,10.34558656,,Clipper Itajai,
2000-02-29,,13.2583,-8.7866667,Boarded,AGO,0.6179347898,,Unspecified,
2000-03-01,,112.7235,-7.2038333,Attempted,IDN,1.955988514,,Thor Skipper,
2000-03-01,,112.7235,-7.2038333,Boarded,IDN,1.955988514,,Unspecified,
2000-03-02,,-74.137,40.7,Boarded,USA,0.992756783,,Alikrator,
2000-03-02,,106.9025,-6.0976667,Attempted,IDN,7.190381219,,Tina V,
2000-03-05,,117.1383,-0.5401667,Boarded,IDN,33.74762115,,Domiat,
2000-03-12,,54.6897,12.987,Attempted,YEM,50.72891474,,World Kudos,
2000-03-12,,80.305,13.1066667,Attempted,IND,0.9518745628,,Robert Stove,
2000-03-22,,39.2765,-6.8265,Attempted,TZA,0.6087118768,,Master Ann,
2000-03-22,,116.2765,-3.2061667,Boarded,IDN,1.701028876,,Yong An 4,
2000-03-26,,110.4377,1.5856667,Boarded,MYS,4.950592576,,ASEAN Energy,
2000-03-27,,112.7235,-7.2038333,Boarded,IDN,1.955988514,,Sanko Sincere,
2000-03-29,,-84.0348,16.3194,Boarded,HND,62.75310436,,Unspecified,
2000-03-31,,-80.0867,-2.52,Boarded,ECU,4.446084967,,P&O Nedlloyd,
2000-03-31,,116.75,-1.4431667,Boarded,IDN,7.701803937,,Aegean Pride,
2000-04-01,,98.7007,3.7836667,Boarded,IDN,2.482068608,,Kyriakos M,
2000-04-02,,117,-2.45,Attempted,IDN,48.46850246,,Hidir Selek,
2000-04-04,,98.7007,3.7836667,Boarded,IDN,2.482068608,,Unspecified,
2000-04-05,,98.7007,3.7836667,Boarded,IDN,2.482068608,,Mimmo Levoli,
2000-04-05,,133.7167,16.335,Attempted,,888.4877409,,United Support,
2000-04-06,,74.5,13.8,Boarded,IND,12.99793616,,Officer Nirmal Jit Singh Sekhon PVC,
2000-04-06,,-70.03,18.4188333,Boarded,DOM,1.640362846,,Pietro Barbaro,
2000-04-06,,105.9922,-5.9531667,Boarded,IDN,3.737279898,,Hidir Selek,
2000-04-12,,98.7007,3.7836667,Attempted,IDN,2.482068608,,Falcon,
2000-04-13,,116.0333,-4.3666667,Attempted,IDN,33.77968173,,Amer Rhine,
2000-04-13,,112.8667,3.1833333,Boarded,MYS,12.66909826,,Sukaria,
2000-04-17,,98.7007,3.7836667,Boarded,IDN,2.482068608,,Mimmo Levoli,
2000-04-17,,98.7007,3.7836667,Boarded,IDN,2.482068608,,Chainat Naree,
2000-04-18,,104.75,-2.983333333,Boarded,IDN,33.47746038,,Kelso,
2000-04-18,,101,2.8833,Boarded,MYS,31.14772765,,SLFA 1207,
2000-04-18,,-80.0867,-2.52,Boarded,ECU,4.446084967,,Maersk Tennessee,
2000-04-19,,49.9667,7.6666667,Attempted,SOM,18.16387567,,Unspecified,
2000-04-19,,83.36,17.6283333,Attempted,IND,7.591093539,,Hellas Fos,
2000-04-19,,-80.0867,-2.52,Boarded,ECU,4.446084967,,White Mountain,
2000-04-19,,116.2765,-3.2061667,Attempted,IDN,1.701028876,,Hidir Selek,
2000-04-20,,105.525,-5.8708333,Boarded,IDN,10.87864212,,Amber K,
2000-04-21,,91.8267,22.2383333,Boarded,BGD,0.8313376995,,Forest I,
2000-04-24,,80.305,13.1066667,Attempted,IND,0.9518745628,,Starlight,
2000-04-24,,-77.205,-12.1283333,Boarded,PER,1.488871853,,Ocelot Max,
2000-04-24,,106.9025,-6.0976667,Boarded,IDN,7.190381219,,London,
2000-04-24,,117.4742,0.0895,Boarded,IDN,0.4586093518,,Jag Kanti,
2000-04-25,,117.538,0.0248333,Attempted,IDN,2.551015665,,Rubin Power,
2000-04-26,,-11.6,30.65,Attempted,MAR,164.0457293,,Sharda,
2000-04-26,,-44.0333,-23.0061667,Boarded,BRA,3.862582586,,Spear,
2000-04-27,,-80.0867,-2.52,Boarded,ECU,4.446084967,,Nordpartner,
2000-04-28,,-64.59,10.2428333,Boarded,VEN,1.250774046,,Alexandra,
2000-04-28,,82.2742,16.9733333,Boarded,IND,3.344295816,,Oriental Peony,
2000-04-29,,118.0555,5.815,Boarded,MYS,0.7614011037,,Mana,
2000-04-29,,105.9535,-6.0081667,Boarded,IDN,1.1166917,,Vanda Naree,
2000-04-29,,112.8667,3.1833333,Boarded,MYS,12.66909826,,Sukaria,
2000-05-01,,-76.2217,-13.7265,Boarded,PER,0.8632777222,,Richmond Park,
2000-05-01,,89.5858,22.4855,Boarded,BGD,17.07600142,,Ardeal,
2000-05-01,,-46.305,-23.98,Boarded,BRA,1.365145238,,Colleen Sif,
2000-05-01,,80.305,13.1066667,Boarded,IND,0.9518745628,,Orientor,
2000-05-03,,107.0687,23.0656667,Boarded,VNM,185.6413749,,Kelso,
2000-05-03,,105.9193,-6.0418333,Attempted,IDN,4.712374625,,Phoenix Gas,
2000-05-03,,118.9369,4.4717,Boarded,MYS,19.63064718,,Unspecified,
2000-05-05,,98.7007,3.7836667,Boarded,IDN,2.482068608,,Parita,
2000-05-06,,103.0605,5.7739,Boarded,MYS,27.97397222,,TFA 522,
2000-05-06,,91.8267,22.2383333,Boarded,BGD,0.8313376995,,Gaz Lion,
2000-05-06,,-46.305,-23.98,Boarded,BRA,1.365145238,,Gefion,
2000-05-07,,48.616667,-13.1166667,Attempted,MDG,22.65539986,,Jasali,
2000-05-07,,100.825,13.138,Boarded,THA,7.253749182,,Maria,
2000-05-07,,118.2083,7.2033333,Attempted,PHL,31.4221291,,Seabee,
2000-05-07,,93.7567,14.1933333,Attempted,MMR,39.3760164,,X Press Makalu,
2000-05-08,,89.5858,22.4855,Attempted,BGD,17.07600142,,Ocean Bird,
2000-05-08,,40.6717,-14.5381667,Boarded,MOZ,1.727156959,,Pacific Ocean,
2000-05-09,,98.7007,3.7836667,Boarded,IDN,2.482068608,,Mcc Vantage,
2000-05-09,,109.2167,2.0833333,Boarded,IDN,21.40810832,,Nepline Delima,
2000-05-09,,102.975,1.6283333,Attempted,MYS,11.86276761,,Pacific,
2000-05-10,,80.305,13.1066667,Boarded,IND,0.9518745628,,Gem of Vizag,
2000-05-10,,105.9922,-5.9531667,Attempted,IDN,3.737279898,,OOCL Acclaim,
2000-05-10,,91.8267,22.2383333,Boarded,BGD,0.8313376995,,Professor Pavienko,
2000-05-12,,98.7007,3.7836667,Boarded,IDN,2.482068608,,Tam Dao,
2000-05-13,,91.8267,22.2383333,Attempted,BGD,0.8313376995,,Clipper Eagle,
2000-05-15,,115.6217,5.8383333,Attempted,MYS,22.47398871,,Meridian Star,
2000-05-15,,104.1667,1.1166667,Boarded,IDN,1.697288047,,Erya 3,
2000-05-16,,-72.3625,18.5533,Hijacked,HTI,1.912179098,,Ginive Engleche,
2000-05-16,,80.305,13.1066667,Boarded,IND,0.9518745628,,Kota Sabas,
2000-05-16,,114.75,-13.4,Attempted,IDN,504.9684264,,Spirit of Juno,
2000-05-17,,98.7007,3.7836667,Boarded,IDN,2.482068608,,Bunga Cenderawasih,
2000-05-17,,102.2117,1.9925,Boarded,MYS,23.13615645,,Temasek,
2000-05-17,,13.2583,-8.7866667,Boarded,AGO,0.6179347898,,Pacific Challenger,
2000-05-21,,76.05,10,Boarded,IND,18.2491006,,Major Shaitan Singh PVC,
2000-05-22,,105.9193,-6.0418333,Boarded,IDN,4.712374625,,Four Cutter,
2000-05-23,,117.1383,-0.5401667,Boarded,IDN,33.74762115,,Qing Ann,
2000-05-25,,91.8267,22.2383333,Boarded,BGD,0.8313376995,,Paulina,
2000-05-26,,114.2747,22.381,Hijacked,CHN,0.6769900045,,Unspecified,
2000-05-27,,102.35,1.9333333,Boarded,MYS,23.46530843,,Ribuan Jaya,
2000-05-27,,102.19,2.0183333,Attempted,MYS,21.89986483,,Temasek,
2000-05-28,,102.4667,2,Boarded,MYS,9.94641658,,Encounter,
2000-05-28,,102.4667,1.7833333,Attempted,MYS,26.6180917,,Cosmo Jupiter,
2000-05-30,,-88.326,16.2341,Hijacked,BLZ,21.68164503,,Maria Estela,
2000-05-31,,79.8517,6.9583333,Boarded,LKA,0.5753896997,,Bunga Teratai 4,
2000-05-31,,102.4167,1.8833333,Attempted,MYS,21.68006126,,Builder,
2000-05-31,,102.4683,1.7833333,Attempted,MYS,26.45484509,,Clarita,
2000-06-01,,102.4667,1.7833333,Attempted,MYS,26.6180917,,Koa Spirit,
2000-06-01,,105.3067,-5.4561667,Attempted,IDN,1.174827798,,Haris,
2000-06-01,,91.8267,22.2383333,Attempted,BGD,0.8313376995,,Actuaria,
2000-06-01,,89.5858,22.4855,Boarded,BGD,17.07600142,,Ardeal,
2000-06-01,,102.4427,1.8111667,Boarded,MYS,25.75126506,,Changi,
2000-06-02,,-4,5.0333333,Boarded,CIV,21.93835374,,Dubai Pride,
2000-06-02,,-4,5.2931667,Attempted,CIV,1.268660948,,Ras Dinielsen,
2000-06-02,,-80.0867,-2.52,Attempted,ECU,4.446084967,,MSC Andes,
2000-06-03,,118.7333,18.8666667,Attempted,PHL,197.3213496,,State of Tripura,
2000-06-03,,80.305,13.1066667,Attempted,IND,0.9518745628,,Iran Vojdan,
2000-06-03,,91.8267,22.2383333,Attempted,BGD,0.8313376995,,Asia Harmony,
2000-06-05,,105.3067,-5.4561667,Boarded,IDN,1.174827798,,Pioneer Skipper,
2000-06-05,,98.7007,3.7836667,Boarded,IDN,2.482068608,,Steamers Aries,
2000-06-06,,80.305,13.1066667,Boarded,IND,0.9518745628,,Transporter,
2000-06-08,,102.3,1.9333333,Attempted,MYS,24.55837631,,Hellas,
2000-06-09,,91.8267,22.2383333,Explosion,BGD,0.8313376995,,Chu Hung,
2000-06-10,,106.9025,-6.0976667,Boarded,IDN,7.190381219,,Sis Pacer,
2000-06-12,,102.4167,1.8833333,Boarded,MYS,21.68006126,,Chahaya Victory,
2000-06-20,,91.8267,22.2383333,Boarded,BGD,0.8313376995,,Chettinad Glory,
2000-06-21,,91.8267,22.2383333,Boarded,BGD,0.8313376995,,Actuaria,
2000-06-23,,100.8905,13.071,Boarded,THA,1.391781685,,P&O Nedlloyd Chicago,
2000-06-23,,9.6667,4.0431667,Boarded,CMR,1.430647464,,Scan Eagle,
2000-06-26,,117.5265,-0.1,Boarded,IDN,3.978096129,,Baroness,
2000-06-26,,80.2114,9.8358,Boarded,LKA,1.825944032,,Mercs Uhana,
2000-06-27,,106.9025,-6.0976667,Boarded,IDN,7.190381219,,Iman,
2000-06-28,,102.0533,2.135,Boarded,MYS,15.81326512,,Humen Bridge,
2000-06-29,,-70.03,18.4188333,Boarded,DOM,1.640362846,,Ilga,
2000-06-30,,100.825,13.138,Attempted,THA,7.253749182,,Cape Cornwall,
2000-07-02,,-13.7093,9.5098333,Boarded,GIN,0.3521903491,,Venezia,
2000-07-02,,100.365,5.3863333,Boarded,MYS,1.754259651,,Kota Selamat,
2000-07-03,,-71.9728,12.2516667,Boarded,COL,0.5137700644,,Minnesota,
2000-07-03,,-64.59,10.2428333,Boarded,VEN,1.250774046,,ATL Endurance,
2000-07-04,,51.0801,11.2854,Hijacked,SOM,1.048879251,,Mad Express,
2000-07-04,,56.204,27.1378333,Boarded,IRN,3.508240816,,Al Badiyah,
2000-07-04,,98.7007,3.7836667,Boarded,IDN,2.482068608,,Dorothea Oldendorff,
2000-07-04,,89.5858,22.4855,Boarded,BGD,17.07600142,,Handy Lily,
2000-07-06,,91.8267,22.2383333,Boarded,BGD,0.8313376995,,Kapitan Petko Voivoda,
2000-07-07,,103.7,0.7,Boarded,IDN,7.063001783,,Top Star,
2000-07-10,,91.8267,22.2383333,Boarded,BGD,0.8313376995,,Boxer Capitan Cook,
2000-07-10,,117.1383,-0.5401667,Boarded,IDN,33.74762115,,Tradenes,
2000-07-12,,100.825,13.138,Boarded,THA,7.253749182,,Ever Happy,
2000-07-12,,-80.0867,-2.52,Boarded,ECU,4.446084967,,Consensus,
2000-07-12,,3.3867,6.4416667,Boarded,NGA,0.3713438466,,Medemsand,
2000-07-13,,41.4417,15.655,Attempted,ERI,110.3543108,,Bonzita,
2000-07-14,,-77.205,-12.1283333,Boarded,PER,1.488871853,,Wehr Ottensen,
2000-07-15,,42.9333,13.6333333,Attempted,YEM,20.07073597,,Bold Endurance,
2000-07-15,,105.9535,-6.0081667,Attempted,IDN,1.1166917,,Linda Oldendorff,
2000-07-15,,-17.0413,20.9045,Boarded,MRT,0.7598637221,,Hermanos Pizon,
2000-07-16,,80.305,13.1066667,Boarded,IND,0.9518745628,,Robert Stove,
2000-07-18,,80.305,13.1066667,Boarded,IND,0.9518745628,,Jurong,
2000-07-18,,118.0555,5.815,Boarded,MYS,0.7614011037,,Erkan Mete,
2000-07-19,,39.305,-6.78,Boarded,TZA,3.248214545,,Amer Oil,
2000-07-20,,102.375,1.8366667,Boarded,MYS,28.59192844,,Gas Fortune,
2000-07-21,,80.305,13.1066667,Boarded,IND,0.9518745628,,Sea Power,
2000-07-22,,99.2682,4.9173,Attempted,MYS,108.5007795,,Sanko Rose,
2000-07-22,,91.8267,22.2383333,Boarded,BGD,0.8313376995,,Ocean Breeze,
2000-07-24,,98.7007,3.7836667,Boarded,IDN,2.482068608,,Malaysia Star I,
2000-07-24,,111.1452,2.16,Attempted,MYS,3.837186257,,Abyot,
2000-07-24,,102.6727,1.4306,Boarded,IDN,19.71849492,,Grace Frontier,
2000-07-24,,43.0833,13.1,Attempted,YEM,21.85681395,,Dias,
2000-07-25,,98.7007,3.7836667,Boarded,IDN,2.482068608,,Mcc Vantage,
2000-07-26,,158.6388,-8.421,Hijacked,SLB,53.41487737,,Soltai No.68,
2000-07-27,,23.6367,37.938,Hijacked,GRC,0.555241581,,Erato,
2000-07-28,,-13.8033,9.165,Boarded,GIN,38.72767473,,Alvelos,
2000-07-28,,102.5417,1.7533333,Boarded,MYS,21.10712274,,Achiever,
2000-07-29,,43.0167,13.1916667,Attempted,YEM,24.90508729,,Saraji Trader,
2000-07-29,,91.8267,22.2383333,Attempted,BGD,0.8313376995,,Esco Virgo,
2000-07-29,,92.3667,20.2166667,Attempted,MMR,35.97747125,,Chu Hong,
2000-07-29,,116.65,-1.7,Boarded,IDN,14.61384647,,Maersk Senang,
2000-07-29,,91.8267,22.2383333,Boarded,BGD,0.8313376995,,Marquisa,
2000-07-31,,-51.09,0.0616667,Attempted,BRA,8.153166831,,Itajuba,
2000-07-31,,102.0817,1.0233333,Attempted,IDN,13.37526829,,Handy Logger,
2000-07-31,,109.94,10.7916667,Attempted,VNM,110.7780355,,Lima,
2000-08-01,,42.9633,13.7366667,Attempted,YEM,18.57669964,,Arrow,
2000-08-01,,76.05,10,Boarded,IND,18.2491006,,Cloud,
2000-08-02,,-64.555,10.24,Boarded,VEN,0.3981375759,,Brooknes,
2000-08-02,,91.8267,22.2383333,Boarded,BGD,0.8313376995,,Actuaria,
2000-08-02,,106.915,-2.8283,Boarded,IDN,10.50130239,,Pac Bintan,
2000-08-03,,103.6333,0.1833333,Attempted,IDN,14.41792464,,Contship Action,
2000-08-04,,110.4633,10.7633333,Attempted,VNM,166.0528309,,Alam Progreso,
2000-08-06,,98.7007,3.7836667,Boarded,IDN,2.482068608,,Seri Ibonda,
2000-08-08,,112.32,11.79,Boarded,CHN,228.3957812,,Shuenn Man No.12,
2000-08-09,,91.8267,22.2383333,Attempted,BGD,0.8313376995,,Amethyst,
2000-08-09,,102.35,1.8916667,Boarded,MYS,27.03781048,,Ali Ekinci,
2000-08-10,,100.8905,13.071,Boarded,THA,1.391781685,,Cape Scott,
2000-08-11,,43.215,13.0166667,Attempted,YEM,14.61507675,,Dreamtime,
2000-08-11,,42.4833,12.5166667,Attempted,ERI,49.22021744,,Oceanic Enterprise,
2000-08-11,,110.7667,11,Attempted,VNM,185.1589076,,Suchada Naree,
2000-08-13,,104.5895,-6.0278333,Boarded,IDN,11.43967717,,Sea Wisdom,
2000-08-14,,98.7007,3.7836667,Boarded,IDN,2.482068608,,MCC Vantage,
2000-08-14,,76.0763,10.0116667,Boarded,IND,15.22950936,,Nand Kishore,
2000-08-15,,80.305,13.1066667,Attempted,IND,0.9518745628,,Chettinad Glory,
2000-08-15,,102.339,2.142,Hijacked,MYS,1.388319305,,JHF 49B,
2000-08-15,,102.339,2.142,Hijacked,MYS,1.388319305,,JHF 885B,
2000-08-15,,-13.8167,9.0833333,Attempted,GIN,47.86149077,,Progreso I,
2000-08-15,,116.2833,-3.2,Boarded,IDN,2.701455267,,TK Gloria,
2000-08-15,,102.25,2.0666667,Boarded,MYS,14.32714054,,Harmony 8,
2000-08-16,,97.6333,5.5833333,Attempted,IDN,39.54089546,,Belicia,
2000-08-17,,98.7007,3.7836667,Boarded,IDN,2.482068608,,Olympic,
2000-08-18,,118.0555,5.815,Boarded,MYS,0.7614011037,,Global Eos,
2000-08-18,,106.9025,-6.0976667,Boarded,IDN,7.190381219,,OOCL Authority,
2000-08-19,,106.7333,10.7666667,Boarded,VNM,9.837909102,,Nepline Teratai,
2000-08-19,,107.0687,23.0656667,Boarded,VNM,185.6413749,,Bunga Kelana,
2000-08-21,,91.7167,22.2333333,Boarded,BGD,6.405101826,,Quixada,
2000-08-22,,117.1383,-0.5401667,Boarded,IDN,33.74762115,,Bolivar Light,
2000-08-23,,91.8267,22.2383333,Boarded,BGD,0.8313376995,,Liberty Spirit,
2000-08-24,,70.2203,23.0243333,Boarded,IND,2.981710221,,Effyn N,
2000-08-24,,102.4567,1.7783333,Boarded,IDN,27.48738978,,Antara Dua,
2000-08-24,,102.5333,1.75,Attempted,MYS,22.0899676,,ASEAN Providence,
2000-08-25,,108.95,2.1833333,Attempted,IDN,34.51936247,,Sanmar Symphony,
2000-08-26,,102.1433,2.0583333,Boarded,MYS,18.16934908,,Kota Cahaya,
2000-08-27,,107.0687,23.0656667,Boarded,VNM,185.6413749,,Paulina,
2000-08-27,,100.3517,5.42,Boarded,MYS,0.9527400013,,Recife,
2000-08-28,,118.0555,5.815,Boarded,MYS,0.7614011037,,Zarina III,
2000-08-28,,102.315,1.9116667,Boarded,MYS,26.61501318,,Tiger Bridge,
2000-08-28,,1.275,6.0416667,Boarded,TGO,10.1910651,,Nordstrength,
2000-08-29,,91.8267,22.2383333,Boarded,BGD,0.8313376995,,Yemaya,
2000-08-29,,-13.7093,9.5098333,Boarded,GIN,0.3521903491,,Progreso I,
2000-08-29,,0.007,5.6258333,Attempted,GHA,3.061197502,,Dawn,
2000-08-30,,101.6,2.5,Attempted,MYS,15.27557101,,Salah Aldeen,
2000-08-30,,98.7007,3.7836667,Boarded,IDN,2.482068608,,Spirit,
2000-08-31,,102.6,1.7,Boarded,MYS,20.81182582,,Clarissa,
2000-08-31,,89.5858,22.4855,Boarded,BGD,17.07600142,,Ardeal,
2000-08-31,,105.3067,-5.4561667,Boarded,IDN,1.174827798,,Adele,
2000-09-01,,100.365,5.3863333,Attempted,MYS,1.754259651,,MCC Vantage,
2000-09-01,,46.3833,12.6,Attempted,YEM,90.32715143,,Stellar Light,
2000-09-01,,117.1383,-0.5401667,Boarded,IDN,33.74762115,,Hatime Ana,
2000-09-02,,105.0333,0.9666667,Boarded,IDN,20.11466797,,Oceanic Confidence,
2000-09-02,,39.645,-4.0483333,Boarded,KEN,2.417621437,,Victoria I,
2000-09-02,,104.9083,1.0666667,Boarded,IDN,8.982979189,,Penang Glory,
2000-09-03,,91.8267,22.2383333,Attempted,BGD,0.8313376995,,Mekhanik Khnelevskiy,
2000-09-03,,31.023,-29.8753333,Boarded,ZAF,1.06187343,,Agios Fanourios,
2000-09-04,,-77.205,-12.1283333,Boarded,PER,1.488871853,,Pella,
2000-09-05,,9.6667,4.0431667,Boarded,CMR,1.430647464,,Eco Ekram,
2000-09-07,,91.8267,22.2383333,Boarded,BGD,0.8313376995,,Mekhanik Khmelevskiy,
2000-09-08,,106.9025,-6.0976667,Boarded,IDN,7.190381219,,Wadi Sudr,
2000-09-09,,105.7717,-2.58,Boarded,IDN,11.49102019,,Hai Soon Viii,
2000-09-11,,110.4377,1.5856667,Boarded,MYS,4.950592576,,Aspidoforos,
2000-09-12,,-57.5215,6.236,Boarded,GUY,3.386316759,,Northern Venture,
2000-09-13,,64.4,21.8833333,Attempted,PAK,364.4530056,,WS Challenger,
2000-09-14,,3.3867,6.4416667,Boarded,NGA,0.3713438466,,Lassia,
2000-09-14,,91.8267,22.2383333,Boarded,BGD,0.8313376995,,Mana,
2000-09-15,,80.305,13.1066667,Boarded,IND,0.9518745628,,Vayu Doot,
2000-09-15,,102.4833,1.7666667,Attempted,MYS,25.7707216,,Stolt Bolton,
2000-09-15,,116.75,-1.4431667,Attempted,IDN,7.701803937,,Kent,
2000-09-16,,104.9,1.0833333,Attempted,IDN,9.558663278,,Alam Aman,
2000-09-16,,70.2203,23.0243333,Boarded,IND,2.981710221,,Champion Trader,
2000-09-18,,108.1,7.0666667,Attempted,VNM,240.7240247,,British Skill,
2000-09-18,,-80.0867,-2.52,Boarded,ECU,4.446084967,,Honolulu,
2000-09-18,,100.8483,13.1316667,Boarded,THA,4.914961008,,Libra Gas,
2000-09-19,,-75.5237,10.3166667,Attempted,COL,0.8774306302,,CSAV Charleston,
2000-09-21,,102.5,1.7666667,Attempted,MYS,24.15956312,,Zi Yun Shan,
2000-09-21,,102.1833,2,Boarded,MYS,23.93165928,,Kelso,
2000-09-21,,105.3657,-5.5583,Boarded,IDN,1.14166515,,Henry Oldendorff,
2000-09-21,,102.8333,1.6383333,Attempted,MYS,16.51776562,,Juta Jaya,
2000-09-21,,99.2682,4.9173,Boarded,MYS,108.5007795,,Andhika Adhiraksha,
2000-09-22,,102.3333,1.8583333,Boarded,MYS,30.61885265,,Stena Constellation,
2000-09-22,,102.3667,1.8166667,Attempted,IDN,28.72329246,,C Bright,
2000-09-23,,117.7569,3.2089,Attempted,IDN,11.93615215,,Deauville,
2000-09-24,,118.0555,5.815,Boarded,MYS,0.7614011037,,Storm Wind,
2000-09-24,,117.1383,-0.5401667,Boarded,IDN,33.74762115,,A Hazer,
2000-09-25,,104.9633,1.2833333,Hijacked,IDN,32.20435698,,Ziangwan,
2000-09-25,,106.3,1.6666667,Boarded,IDN,118.097664,,Petchem,
2000-09-25,,120.9428,14.5211667,Boarded,PHL,3.658996985,,Malaysia Bridge,
2000-09-25,,105.0567,1.09,Attempted,IDN,25.01997062,,Penang Glory,
